"id1","Image","Title","Scheduled","Address.address_line_1","Address.address_line_2","Address.district_city","Address.state_province","Address.postal_Code","Address.country","Address.latitude","Address.longitude","longitude1","Modified_User","Added_Time","Modified_Time","Record_Status","latitude1","ID","Added_User"
"49644-001","<img src= \"https://photos.zillowstatic.com/fp/864a8c62de413357a179800bbd955413-p_e.jpg\" border=\"0\"></img>","Dibbert, Monahan and Reichert","false","4920 State Road 33 N","apt. 7-208","Lakeland","FL","33805","United States","28.10889","-81.940655","-81.94066","Z:i.vatsenko@gmail.com","1608720408000","1611314109000","0","28.10889","1581254000005241003","Z:i.vatsenko@gmail.com"
"55289-937","<img src= \"https://photos.zillowstatic.com/fp/adb3b344c6f1c258ea9f8100523ad2d0-p_e.jpg\" border=\"0\"></img>","Marquardt, Block and Emmerich","false","9005 Lenox Pointe Dr","apt. 12201","Charlotte","NC","28273","United States","35.133328","-80.937113","-80.93711","Z:i.vatsenko@gmail.com","1608720408000","1611314109000","0","35.13333","1581254000005241011","Z:i.vatsenko@gmail.com"
"62756-138","<img src= \"https://photos.zillowstatic.com/fp/b9615165a88f36b68e0433ad3c2e3bf8-p_e.jpg\" border=\"0\"></img>","Raynor and Sons","false","1028 Balch Rd","apt. 3208","Madison","AL","35758","United States","34.745201","-86.770749","-86.77075","Z:i.vatsenko@gmail.com","1608720408000","1611314109000","0","34.7452","1581254000005241015","Z:i.vatsenko@gmail.com"
"0904-6204","<img src= \"https://photos.zillowstatic.com/fp/f49f2368928b6e3f19131f82f888de0f-p_e.jpg\" border=\"0\"></img>","Stehr, Hand and Goodwin","false","11210 FM 2222 Rd","apt. 13204","Austin","TX","78726","United States","30.400011","-97.850565","-97.85057","Z:i.vatsenko@gmail.com","1608720408000","1611314109000","0","30.40001","1581254000005241019","Z:i.vatsenko@gmail.com"
"43742-0205","<img src= \"https://photos.zillowstatic.com/fp/aa91df0d84b1b14006ebffdbd85b909f-p_e.jpg\" border=\"0\"></img>","Bogan-MacGyver","false","2323 W 7th St","","Cleveland","OH","44113","United States","41.481607","-81.683777","-81.68378","Z:i.vatsenko@gmail.com","1608720408000","1612358470000","0","41.48161","1581254000005241023","Z:i.vatsenko@gmail.com"
"54973-3108","<img src= \"https://photos.zillowstatic.com/fp/d371dd196f0aae51ecd53e805b00fb40-p_e.jpg\" border=\"0\"></img>","Kub LLC","false","5010 Mancuso Ln","apt. 624","Baton Rouge","LA","70809","United States","30.398453","-91.103785","-91.10379","Z:i.vatsenko@gmail.com","1608720408000","1611314109000","0","30.39845","1581254000005241027","Z:i.vatsenko@gmail.com"
"52125-868","<img src= \"https://photos.zillowstatic.com/fp/b2b5daf9c286d98cf6c9ce2222d68bd2-p_e.jpg\" border=\"0\"></img>","Lehner Group","false","7635 Timberlin Park Blvd ","Apt. 314","Jacksonville","FL","32256","United States","30.199133","-81.547923","-81.54792","Z:i.vatsenko@gmail.com","1608720408000","1612357464000","0","30.19913","1581254000005241031","Z:i.vatsenko@gmail.com"
"13107-169","<img src= \"https://photos.zillowstatic.com/fp/604072e0498792f421409efc08459634-p_e.jpg\" border=\"0\"></img>","Bernier, Nikolaus and Ziemann","false","13115 Whittington Dr ","Apt. 9306","Houston","TX","77077","United States","29.747376","-95.621152","-95.62115","Z:i.vatsenko@gmail.com","1608720408000","1612357464000","0","29.74738","1581254000005241035","Z:i.vatsenko@gmail.com"
"66993-711","<img src= \"https://photos.zillowstatic.com/fp/1be94e7974f62dcf978ea21ff6bf2b99-p_e.jpg\" border=\"0\"></img>","Bahringer, Stokes and Heidenreich","false","5423 N Loop 1604","apt. MP1CX2Z5P","San Antonio","TX","78249","United States","29.593488","-98.592676","-98.59268","Z:i.vatsenko@gmail.com","1608720408000","1611314109000","0","29.59349","1581254000005241039","Z:i.vatsenko@gmail.com"
"65121-994","<img src= \"https://photos.zillowstatic.com/fp/bf2e4101fb49db8ba6e25c7d6eae1007-p_e.jpg\" border=\"0\"></img>","Mitchell Inc","false","4212 Napa Oak Dr","apt. 1-104","Charlotte","NC","28216","United States","35.334877","-80.854604","-80.8546","Z:i.vatsenko@gmail.com","1608720408000","1611314109000","0","35.33488","1581254000005241043","Z:i.vatsenko@gmail.com"
"33261-618","<img src= \"https://photos.zillowstatic.com/fp/c00f4cdb913d5c69f6030675f918d2dc-p_e.jpg\" border=\"0\"></img>","Torp, Marquardt and Koch","false","100 Durant St","apt. 305","Chapel Hill","NC","27517","United States","35.858262","-79.024948","-79.02495","Z:i.vatsenko@gmail.com","1608720408000","1611314109000","0","35.85826","1581254000005241047","Z:i.vatsenko@gmail.com"
"11673-586","<img src= \"https://photos.zillowstatic.com/fp/24630104383c288138e0010d0d226d1b-p_e.jpg\" border=\"0\"></img>","Schmitt, Maggio and Beier","false","10880 Angelfish Way","apt. 208","Jacksonville","FL","32256","United States","30.244578","-81.529023","-81.52902","Z:i.vatsenko@gmail.com","1608720408000","1611314109000","0","30.24458","1581254000005241051","Z:i.vatsenko@gmail.com"
"50813-0004","<img src= \"https://photos.zillowstatic.com/fp/f1918dec0517d5e2e0babc6453d6b7ac-p_e.jpg\" border=\"0\"></img>","Hagenes, Zemlak and Boyer","false","1415 Eldridge Pkwy","apt. 7-0721","Houston","TX","77077","United States","29.758359","-95.623868","-95.62387","Z:i.vatsenko@gmail.com","1608720408000","1611314109000","0","29.75836","1581254000005241055","Z:i.vatsenko@gmail.com"
"61357-152","<img src= \"https://photos.zillowstatic.com/fp/afaaf2aa5dd635e8d5f98b49c1fd4a0e-p_e.jpg\" border=\"0\"></img>","Jast Group","false","13300 Atlantic Blvd ","Apt. 516","Jacksonville","FL","32225","United States","30.314988","-81.453412","-81.45341","Z:i.vatsenko@gmail.com","1608720408000","1612357464000","0","30.31499","1581254000005241059","Z:i.vatsenko@gmail.com"
"57520-0756","<img src= \"https://photos.zillowstatic.com/fp/d840cfa539c60857d10dd2566c97ae74-p_e.jpg\" border=\"0\"></img>","Wunsch Inc","false","9835 Namaste Loop","apt. 3202","Orlando","FL","32836","United States","28.414063","-81.530091","-81.53009","Z:i.vatsenko@gmail.com","1608720408000","1611314109000","0","28.41406","1581254000005241071","Z:i.vatsenko@gmail.com"
"64205-113","<img src= \"https://photos.zillowstatic.com/fp/d6a741ac10729cd411fca9f28005bf59-p_e.jpg\" border=\"0\"></img>","Upton-Ankunding","false","1950 Cambridge Ct","apt. PW2HTVNPQ","Palatine","IL","60074","United States","42.147068","-88.012917","-88.01292","Z:i.vatsenko@gmail.com","1608720408000","1611314109000","0","42.14707","1581254000005241075","Z:i.vatsenko@gmail.com"
"76138-106","<img src= \"https://photos.zillowstatic.com/fp/1059279a5711c6d0fbd8e1c2346230b2-p_e.jpg\" border=\"0\"></img>","Luettgen-Deckow","false","1310 Silver Sage Dr","apt. 12-105","Raleigh","NC","27606","United States","35.763034","-78.728428","-78.72843","Z:i.vatsenko@gmail.com","1608720408000","1611314109000","0","35.76303","1581254000005241079","Z:i.vatsenko@gmail.com"
"24236-789","<img src= \"https://photos.zillowstatic.com/fp/1c21aa60f857f7c041f27268bad8b3be-p_e.jpg\" border=\"0\"></img>","Stroman-Barrows","false","16930 Sedgebrook Ln","apt. J","Huntersville","NC","28078","United States","35.444971","-80.886969","-80.88697","Z:i.vatsenko@gmail.com","1608720408000","1611314109000","0","35.44497","1581254000005241083","Z:i.vatsenko@gmail.com"
"34605-6001","<img src= \"https://photos.zillowstatic.com/fp/256eb08efc75068107547c9c7d6a489b-p_e.jpg\" border=\"0\"></img>","Ondricka-Nienow","false","1433 NW 8th Ave","","Fort Lauderdale","FL","33311","United States","26.144227","-80.153129","-80.15313","Z:i.vatsenko@gmail.com","1608720408000","1612358470000","0","26.14423","1581254000005241095","Z:i.vatsenko@gmail.com"
"65197-310","<img src= \"https://photos.zillowstatic.com/fp/390b384d532e7a927ff7eb4aac4417cc-p_e.jpg\" border=\"0\"></img>","Miller, Reichert and Reichert","false","1555 Village Center Dr","apt. 11-302","Lakeland","FL","33803","United States","28.003021","-81.980766","-81.98077","Z:i.vatsenko@gmail.com","1608720408000","1611314109000","0","28.00302","1581254000005241099","Z:i.vatsenko@gmail.com"
"50865-682","<img src= \"https://photos.zillowstatic.com/fp/d262ad2d995f539a8cb360449c1e412b-p_e.jpg\" border=\"0\"></img>","Heller-Kemmer","false","1701 Lee Rd","apt. SYRUXZAQJ","Winter Park","FL","32789","United States","28.606467","-81.372151","-81.37215","Z:i.vatsenko@gmail.com","1608720408000","1611314109000","0","28.60647","1581254000005241103","Z:i.vatsenko@gmail.com"
"24338-622","<img src= \"https://photos.zillowstatic.com/fp/0df94b2ac0b3af4acca91b27d37189c1-p_e.jpg\" border=\"0\"></img>","Bahringer LLC","false","100 Walden Heights Dr ","Apt. 317","Irmo","SC","29063","United States","34.088682","-81.154598","-81.1546","Z:i.vatsenko@gmail.com","1608720408000","1612357464000","0","34.08868","1581254000005241107","Z:i.vatsenko@gmail.com"
"62565-903","<img src= \"https://photos.zillowstatic.com/fp/8e620310b38251ed82645ae87bfcdd60-p_e.jpg\" border=\"0\"></img>","Rolfson Group","false","6227 W End Blvd","","New Orleans","LA","70124","United States","30.004575","-90.114374","-90.11437","Z:i.vatsenko@gmail.com","1608720408000","1612358470000","0","30.00458","1581254000005241111","Z:i.vatsenko@gmail.com"
"63481-629","<img src= \"https://photos.zillowstatic.com/fp/50efe1c89a87ed0ddd92a4162d75d0c9-p_e.jpg\" border=\"0\"></img>","Ullrich Inc","false","1601 S Heatherwilde Blvd","apt. 1034","Pflugerville","TX","78660","United States","30.431733","-97.654499","-97.6545","Z:i.vatsenko@gmail.com","1608720408000","1611314109000","0","30.43173","1581254000005241115","Z:i.vatsenko@gmail.com"
"49349-523","<img src= \"https://photos.zillowstatic.com/fp/1166f0817a4394af5c0a7c85235eb896-p_e.jpg\" border=\"0\"></img>","Quigley-Ziemann","false","100 Akers Ridge Dr SE","apt. 1917","Atlanta","GA","30339","United States","33.891937","-84.450438","-84.45044","Z:i.vatsenko@gmail.com","1608720408000","1611314109000","0","33.89194","1581254000005241119","Z:i.vatsenko@gmail.com"
"10345-034","<img src= \"https://photos.zillowstatic.com/fp/56748317ea994b1fae831b3d237dfa6f-p_e.jpg\" border=\"0\"></img>","Ruecker, Lueilwitz and Cronin","false","2414 County Road 90","apt. 217","Pearland","TX","77584","United States","29.554784","-95.367681","-95.36768","Z:i.vatsenko@gmail.com","1608720408000","1611314109000","0","29.55478","1581254000005241123","Z:i.vatsenko@gmail.com"
"52125-535","<img src= \"https://photos.zillowstatic.com/fp/9337b896823b02b2c0b8950edd73ce43-p_e.jpg\" border=\"0\"></img>","McClure-Erdman","false","3720 College Park Dr","apt. 5101","The Woodlands","TX","77384","United States","30.206304","-95.481113","-95.48111","Z:i.vatsenko@gmail.com","1608720408000","1611314109000","0","30.2063","1581254000005241127","Z:i.vatsenko@gmail.com"
"17575-006","<img src= \"https://photos.zillowstatic.com/fp/23a99be051fe4056e0bfb96b7f814a15-p_e.jpg\" border=\"0\"></img>","Gutmann-Crist","false","800 19th Ave S","apt. 1910B","Nashville","TN","37203","United States","36.150379","-86.795568","-86.79557","Z:i.vatsenko@gmail.com","1608720408000","1611314109000","0","36.15038","1581254000005241131","Z:i.vatsenko@gmail.com"
"41520-401","<img src= \"https://photos.zillowstatic.com/fp/83eea8472587663aff330973055edb8a-p_e.jpg\" border=\"0\"></img>","Prohaska, Carter and Durgan","false","900 Owl Wood Ln","apt. 6201","Summerville","SC","29486","United States","33.107433","-80.127476","-80.12748","Z:i.vatsenko@gmail.com","1608720408000","1611314109000","0","33.10743","1581254000005241135","Z:i.vatsenko@gmail.com"
"24385-352","<img src= \"https://photos.zillowstatic.com/fp/075c8548937161ce86ada7dcc1bf6170-p_e.jpg\" border=\"0\"></img>","Block-Collier","false","2700 Woodland Park Dr","apt. 904","Houston","TX","77082","United States","29.734736","-95.581511","-95.58151","Z:i.vatsenko@gmail.com","1608720408000","1611314109000","0","29.73474","1581254000005241139","Z:i.vatsenko@gmail.com"
"0378-5043","<img src= \"https://photos.zillowstatic.com/fp/b65a610cf900e5855301a0ff25f98418-p_e.jpg\" border=\"0\"></img>","Gislason Inc","false","14501 Gateway Point Cir","apt. 14105","Orlando","FL","32821","United States","28.353367","-81.499838","-81.49984","Z:i.vatsenko@gmail.com","1608720408000","1611314109000","0","28.35337","1581254000005241143","Z:i.vatsenko@gmail.com"
"60760-535","<img src= \"https://photos.zillowstatic.com/fp/255025854d5479b8caef8507dfd3405e-p_e.jpg\" border=\"0\"></img>","Medhurst, Terry and Gibson","false","10851 W Montfair Blvd","apt. 5102","The Woodlands","TX","77382","United States","30.193146","-95.585973","-95.58597","Z:i.vatsenko@gmail.com","1608720408000","1611314109000","0","30.19315","1581254000005241147","Z:i.vatsenko@gmail.com"
"13533-684","<img src= \"https://photos.zillowstatic.com/fp/b56c6f9c015bdaf016dd5c1b230fde85-p_e.jpg\" border=\"0\"></img>","Hoppe-Lebsack","false","405 E 3rd St","","Lockport","IL","60441","United States","41.594042","-88.049656","-88.04966","Z:i.vatsenko@gmail.com","1608720408000","1612358470000","0","41.59404","1581254000005241151","Z:i.vatsenko@gmail.com"
"37808-176","<img src= \"https://photos.zillowstatic.com/fp/d5114dec927f8029bbc4efaa3a5a4adb-p_e.jpg\" border=\"0\"></img>","Wuckert-Wintheiser","false","4703 Summit Overlook Dr","apt. 101","Raleigh","NC","27612","United States","35.845709","-78.677455","-78.67746","Z:i.vatsenko@gmail.com","1608720408000","1611314109000","0","35.84571","1581254000005241155","Z:i.vatsenko@gmail.com"
"0187-0500","<img src= \"https://photos.zillowstatic.com/fp/757082972b0957f329424fe97106b70f-p_e.jpg\" border=\"0\"></img>","Rath and Sons","false","9520 Spectrum Dr","apt. 9108","Austin","TX","78717","United States","30.482141","-97.770077","-97.77008","Z:i.vatsenko@gmail.com","1608720408000","1611314109000","0","30.48214","1581254000005241159","Z:i.vatsenko@gmail.com"
"63550-158","<img src= \"https://photos.zillowstatic.com/fp/803e7befde05b9359876c4b2ba5fec4a-p_e.jpg\" border=\"0\"></img>","Wilkinson, Bode and Bergstrom","false","1626 N Ellison Dr","apt. 9108","San Antonio","TX","78251","United States","29.450298","-98.688826","-98.68883","Z:i.vatsenko@gmail.com","1608720408000","1611314109000","0","29.4503","1581254000005241163","Z:i.vatsenko@gmail.com"
"55316-094","<img src= \"https://photos.zillowstatic.com/fp/1852efe93cd8a08b6d33a6f72dd2417d-p_e.jpg\" border=\"0\"></img>","Barton Group","false","4101 Lake Lynn Dr","apt. 11-108","Raleigh","NC","27613","United States","35.878535","-78.703957","-78.70396","Z:i.vatsenko@gmail.com","1608720408000","1611314109000","0","35.87854","1581254000005241167","Z:i.vatsenko@gmail.com"
"0093-0088","<img src= \"https://photos.zillowstatic.com/fp/822b141c5a63a0a19531e81d1f192f8f-p_e.jpg\" border=\"0\"></img>","Wilderman, Schulist and Hackett","false","826 Milano Cir","apt. 304","Brandon","FL","33511","United States","27.903459","-82.296137","-82.29614","Z:i.vatsenko@gmail.com","1608720408000","1611314109000","0","27.90346","1581254000005241171","Z:i.vatsenko@gmail.com"
"49817-0055","<img src= \"https://photos.zillowstatic.com/fp/83f2a8f09c4187f5f51c524e72054f86-p_e.jpg\" border=\"0\"></img>","Auer-Spencer","false","3340 Shipley St","apt. 5402","Ladson","SC","29456","United States","32.987454","-80.086557","-80.08656","Z:i.vatsenko@gmail.com","1608720408000","1611314109000","0","32.98745","1581254000005241179","Z:i.vatsenko@gmail.com"
"36987-1181","<img src= \"https://photos.zillowstatic.com/fp/9c0df58b82802548e0b06f0336890b38-p_e.jpg\" border=\"0\"></img>","Ward, Schuster and Wilkinson","false","2200 Arlington Ave S","apt. 5109","Birmingham","AL","35205","United States","33.500133","-86.789486","-86.78949","Z:i.vatsenko@gmail.com","1608720408000","1611314109000","0","33.50013","1581254000005241187","Z:i.vatsenko@gmail.com"
"54973-3013","<img src= \"https://photos.zillowstatic.com/fp/77c0c975ee4bfa87425d0c1e09eb0182-p_e.jpg\" border=\"0\"></img>","Bernhard Inc","false","6225 Hackberry Creek Trl","apt. 414","Charlotte","NC","28269","United States","35.333823","-80.806697","-80.8067","Z:i.vatsenko@gmail.com","1608720408000","1611314109000","0","35.33382","1581254000005241191","Z:i.vatsenko@gmail.com"
"41520-432","<img src= \"https://photos.zillowstatic.com/fp/2b0a67bff872a47237b8ef873ea34656-p_e.jpg\" border=\"0\"></img>","Buckridge Group","false","8616 Gate Pkwy W","apt. 1111","Jacksonville","FL","32216","United States","30.255306","-81.563421","-81.56342","Z:i.vatsenko@gmail.com","1608720408000","1611314109000","0","30.25531","1581254000005241195","Z:i.vatsenko@gmail.com"
"63941-950","<img src= \"https://photos.zillowstatic.com/fp/2b9dc30c06509423bd1c755805bd3777-p_e.jpg\" border=\"0\"></img>","Schinner-Turner","false","841 Handsworth Ln","apt. 304","Raleigh","NC","27607","United States","35.795074","-78.738312","-78.73831","Z:i.vatsenko@gmail.com","1608720408000","1611314109000","0","35.79507","1581254000005241199","Z:i.vatsenko@gmail.com"
"36987-1974","<img src= \"https://photos.zillowstatic.com/fp/a61f26d3a055418fad056d912019bb90-p_e.jpg\" border=\"0\"></img>","O'Reilly, Beatty and Lueilwitz","false","1680 Bluewater Way","apt. 7TAM7MSPW","Charleston","SC","29414","United States","32.803248","-80.101352","-80.10135","Z:i.vatsenko@gmail.com","1608720408000","1611314109000","0","32.80325","1581254000005241219","Z:i.vatsenko@gmail.com"
"65044-1213","<img src= \"https://photos.zillowstatic.com/fp/b1e280f3a0a308d6ee5ebb083e8eecc3-p_e.jpg\" border=\"0\"></img>","Zulauf Group","false","6010 Attleboro Dr","apt. 4114","Raleigh","NC","27606","United States","35.751014","-78.73593","-78.73593","Z:i.vatsenko@gmail.com","1608720408000","1611314109000","0","35.75101","1581254000005241223","Z:i.vatsenko@gmail.com"
"11084-066","<img src= \"https://photos.zillowstatic.com/fp/c5238fc586ec0f27eec16342fd30ef3f-p_e.jpg\" border=\"0\"></img>","Emard, Keeling and Rippin","false","9800 Touchton Rd","apt. K30BSJYDV","Jacksonville","FL","32246","United States","30.266554","-81.552218","-81.55222","Z:i.vatsenko@gmail.com","1608720408000","1611314109000","0","30.26655","1581254000005241231","Z:i.vatsenko@gmail.com"
"0054-0223","<img src= \"https://photos.zillowstatic.com/fp/1530737b8083f0d023144d2f1db8eada-p_e.jpg\" border=\"0\"></img>","Leannon LLC","false","204 Hawthorne Groves Blvd","apt. 21-104","Orlando","FL","32835","United States","28.544045","-81.506845","-81.50685","Z:i.vatsenko@gmail.com","1608720408000","1611314109000","0","28.54405","1581254000005241235","Z:i.vatsenko@gmail.com"
"43857-0003","<img src= \"https://photos.zillowstatic.com/fp/1f70a5563d50dd8f0a2763f5d903fc4c-p_e.jpg\" border=\"0\"></img>","Lowe, Schiller and Hyatt","false","9140 Highway 6 N","apt. 1208","Houston","TX","77095","United States","29.910593","-95.625224","-95.62522","Z:i.vatsenko@gmail.com","1608720408000","1611314109000","0","29.91059","1581254000005241239","Z:i.vatsenko@gmail.com"
"50964-060","<img src= \"https://photos.zillowstatic.com/fp/a55412e3ea9e443660af2f8b8d4d079d-p_e.jpg\" border=\"0\"></img>","Kirlin-Welch","false","1720 Grand Avenue Pkwy","apt. 11208","Pflugerville","TX","78660","United States","30.45611","-97.66179","-97.66179","Z:i.vatsenko@gmail.com","1608720408000","1611314109000","0","30.45611","1581254000005241243","Z:i.vatsenko@gmail.com"
"37000-454","<img src= \"https://photos.zillowstatic.com/fp/b02e8eb0432752b2edfd650a75640479-p_e.jpg\" border=\"0\"></img>","Mertz Group","false","2100 Addison Ln","apt. 2404","Alpharetta","GA","30005","United States","34.06636","-84.208365","-84.20837","Z:i.vatsenko@gmail.com","1608720408000","1611314109000","0","34.06636","1581254000005241247","Z:i.vatsenko@gmail.com"
"47781-100","<img src= \"https://photos.zillowstatic.com/fp/9d4ef906a90ea66089a8836910824dda-p_e.jpg\" border=\"0\"></img>","Grant and Sons","false","6800 Highway 70 S","apt. 404","Nashville","TN","37221","United States","36.083564","-86.900516","-86.90052","Z:i.vatsenko@gmail.com","1608720408000","1611314109000","0","36.08356","1581254000005241251","Z:i.vatsenko@gmail.com"
"64679-965","<img src= \"https://photos.zillowstatic.com/fp/096e12a2c6b873d5c7e0e16eab8a6c3a-p_e.jpg\" border=\"0\"></img>","Wolff-Hettinger","false","2526 Business Center Dr ","Apt. 227","Pearland","TX","77584","United States","29.563496","-95.392591","-95.39259","Z:i.vatsenko@gmail.com","1608720408000","1612357464000","0","29.5635","1581254000005241255","Z:i.vatsenko@gmail.com"
"34690-5001","<img src= \"https://photos.zillowstatic.com/fp/02d1cf4a368cc4dda4f7d8819d74fa87-p_e.jpg\" border=\"0\"></img>","Nienow and Sons","false","100 Hamilton Ridge Dr","apt. 102","Maryville","TN","37801","United States","35.765834","-83.992086","-83.99209","Z:i.vatsenko@gmail.com","1608720408000","1611314109000","0","35.76583","1581254000005241259","Z:i.vatsenko@gmail.com"
"42507-090","<img src= \"https://photos.zillowstatic.com/fp/a57386dc05905dcde87fb90f1e064bc4-p_e.jpg\" border=\"0\"></img>","Welch-Langosh","false","4921 Bluffton Pkwy ","Apt. 1623","Bluffton","SC","29910","United States","32.248116","-80.847837","-80.84784","Z:i.vatsenko@gmail.com","1608720408000","1612357464000","0","32.24812","1581254000005241263","Z:i.vatsenko@gmail.com"
"47219-250","<img src= \"https://photos.zillowstatic.com/fp/29fa73d32cad3c395dc0bf98e86d4872-p_e.jpg\" border=\"0\"></img>","Hirthe, Schmidt and Abshire","false","7820 Baymeadows Rd E","apt. 1123","Jacksonville","FL","32256","United States","30.230451","-81.510894","-81.51089","Z:i.vatsenko@gmail.com","1608720408000","1611314109000","0","30.23045","1581254000005241267","Z:i.vatsenko@gmail.com"
"41250-404","<img src= \"https://photos.zillowstatic.com/fp/675d8f2794d3443f011e856d3ce04d81-p_e.jpg\" border=\"0\"></img>","Raynor, Metz and Mertz","false","4950 Deep Forest Ct","apt. 2-208","Lakeland","FL","33805","United States","28.106514","-81.94247","-81.94247","Z:i.vatsenko@gmail.com","1608720408000","1611314109000","0","28.10651","1581254000005241271","Z:i.vatsenko@gmail.com"
"49348-279","<img src= \"https://photos.zillowstatic.com/fp/6cea70b1c76b0c0039465c894670be23-p_e.jpg\" border=\"0\"></img>","Rath, Dicki and Morar","false","2300 Bluff Oak Way","apt. 6101","Tallahassee","FL","32311","United States","30.414791","-84.232636","-84.23264","Z:i.vatsenko@gmail.com","1608720408000","1611314109000","0","30.41479","1581254000005241275","Z:i.vatsenko@gmail.com"
"32909-715","<img src= \"https://photos.zillowstatic.com/fp/1fb94c8ee2f2d323804c81c14b4a90bb-p_e.jpg\" border=\"0\"></img>","Littel-Krajcik","false","625 Cameron Walk Ct","apt. 5715303","Charlotte","NC","28217","United States","35.163447","-80.90538","-80.90538","Z:i.vatsenko@gmail.com","1608720408000","1611314109000","0","35.16345","1581254000005241279","Z:i.vatsenko@gmail.com"
"0179-0074","<img src= \"https://photos.zillowstatic.com/fp/b2b0e6a9171780097e95394bd33af8e6-p_e.jpg\" border=\"0\"></img>","Sawayn, Rutherford and Kuhic","false","356 Lake Murray Blvd ","Apt. 337","Irmo","SC","29063","United States","34.089944","-81.154598","-81.1546","Z:i.vatsenko@gmail.com","1608720408000","1612357464000","0","34.08994","1581254000005241283","Z:i.vatsenko@gmail.com"
"54868-5326","<img src= \"https://photos.zillowstatic.com/fp/1c17ddfe64208fdea1d9b5f976f9a849-p_e.jpg\" border=\"0\"></img>","Bergstrom Group","false","3575 Peachtree Industrial Blvd","apt. 2801","Duluth","GA","30096","United States","33.999422","-84.171871","-84.17187","Z:i.vatsenko@gmail.com","1608720408000","1611314109000","0","33.99942","1581254000005241287","Z:i.vatsenko@gmail.com"
"54868-3071","<img src= \"https://photos.zillowstatic.com/fp/7a2801411ed6eaa04d13bb93ab2a1f5f-p_e.jpg\" border=\"0\"></img>","Harber Group","false","14325 Plantation Park Blvd","apt. 1221","Charlotte","NC","28277","United States","35.05428","-80.861834","-80.86183","Z:i.vatsenko@gmail.com","1608720408000","1611314109000","0","35.05428","1581254000005241291","Z:i.vatsenko@gmail.com"
"35000-067","<img src= \"https://photos.zillowstatic.com/fp/6fee03b9868968008c36e106fb89c44c-p_e.jpg\" border=\"0\"></img>","Hahn Inc","false","20303 Stone Oak Pkwy","apt. 2203","San Antonio","TX","78258","United States","29.64566","-98.471476","-98.47148","Z:i.vatsenko@gmail.com","1608720408000","1611314109000","0","29.64566","1581254000005241299","Z:i.vatsenko@gmail.com"
"64679-311","<img src= \"https://photos.zillowstatic.com/fp/12bfb00fcaca8332be841bb8952543ec-p_e.jpg\" border=\"0\"></img>","Williamson, Purdy and Wolff","false","13401 Legendary Dr ","Apt. 8201","Austin","TX","78727","United States","30.438513","-97.73436","-97.73436","Z:i.vatsenko@gmail.com","1608720408000","1612357464000","0","30.43851","1581254000005241303","Z:i.vatsenko@gmail.com"
"0268-0655","<img src= \"https://photos.zillowstatic.com/fp/4eec881f83b0c7ab762f269f4de7a064-p_e.jpg\" border=\"0\"></img>","Frami-Von","false","553 Agripark Dr","apt. 1008","Murfreesboro","TN","37128","United States","35.852738","-86.446641","-86.44664","Z:i.vatsenko@gmail.com","1608720408000","1611314109000","0","35.85274","1581254000005241307","Z:i.vatsenko@gmail.com"
"16729-153","<img src= \"https://photos.zillowstatic.com/fp/28a4f67d0c8dc0ebee54968c32f50ea0-p_e.jpg\" border=\"0\"></img>","Brown, Boyle and O'Kon","false","1601 Riddick Ln","apt. 1003","Pt Wentworth","GA","31407","United States","32.177","-81.2003","-81.2003","Z:i.vatsenko@gmail.com","1608720408000","1611314109000","0","32.177","1581254000005241311","Z:i.vatsenko@gmail.com"
"51862-156","<img src= \"https://photos.zillowstatic.com/fp/6da4491807c28243264e5db7de38fbe6-p_e.jpg\" border=\"0\"></img>","Koch-Hamill","false","400 W Claiborne Rd","apt. 514484","North East","MD","21901","United States","39.594089","-75.97981","-75.97981","Z:i.vatsenko@gmail.com","1608720408000","1611314109000","0","39.59409","1581254000005241323","Z:i.vatsenko@gmail.com"
"52343-053","<img src= \"https://photos.zillowstatic.com/fp/7714530fe3e74f7b4782b74a4b8b2284-p_e.jpg\" border=\"0\"></img>","Lueilwitz, Frami and Green","false","4341 Summit Creek Blvd","apt. 1101","Orlando","FL","32837","United States","28.374939","-81.428294","-81.42829","Z:i.vatsenko@gmail.com","1608720408000","1611314109000","0","28.37494","1581254000005241327","Z:i.vatsenko@gmail.com"
"52584-018","<img src= \"https://photos.zillowstatic.com/fp/744fbe825fa463147e40441fe056c9f7-p_e.jpg\" border=\"0\"></img>","Renner, Kessler and Turcotte","false","1110 Mason Pond Pl","apt. 1140-207","Ladson","SC","29456","United States","32.999119","-80.119026","-80.11903","Z:i.vatsenko@gmail.com","1608720408000","1611314109000","0","32.99912","1581254000005241335","Z:i.vatsenko@gmail.com"
"58232-9911","<img src= \"https://photos.zillowstatic.com/fp/e381ab513788aa378d97c39442b451e9-p_e.jpg\" border=\"0\"></img>","Fahey-Quitzon","false","3715 S Alafaya Heights Rd","apt. 5-233","Orlando","FL","32828","United States","28.507823","-81.162965","-81.16297","Z:i.vatsenko@gmail.com","1608720408000","1611314109000","0","28.50782","1581254000005241343","Z:i.vatsenko@gmail.com"
"53808-0162","<img src= \"https://photos.zillowstatic.com/fp/1d8db716496718ae8d42fe6ff22d1492-p_e.jpg\" border=\"0\"></img>","Doyle, Swaniawski and Torp","false","2001 Cramer Cir","apt. 2080-102","Indian Land","SC","29707","United States","34.95873","-80.845403","-80.8454","Z:i.vatsenko@gmail.com","1608720408000","1611314109000","0","34.95873","1581254000005241347","Z:i.vatsenko@gmail.com"
"55154-7809","<img src= \"https://photos.zillowstatic.com/fp/074b16f474d0366c22c6069002b1d6f7-p_e.jpg\" border=\"0\"></img>","Zemlak, Luettgen and Goyette","false","13085 Morris Rd","apt. 5301","Alpharetta","GA","30004","United States","34.099513","-84.257187","-84.25719","Z:i.vatsenko@gmail.com","1608720408000","1611314109000","0","34.09951","1581254000005241351","Z:i.vatsenko@gmail.com"
"57520-0011","<img src= \"https://photos.zillowstatic.com/fp/97b5aea362ef763fd2b9f1df8f3e2b2d-p_e.jpg\" border=\"0\"></img>","Bergstrom-Herzog","false","10800 Lakeline Blvd","apt. 13201","Austin","TX","78717","United States","30.481614","-97.793362","-97.79336","Z:i.vatsenko@gmail.com","1608720408000","1611314109000","0","30.48161","1581254000005241355","Z:i.vatsenko@gmail.com"
"50332-0103","<img src= \"https://photos.zillowstatic.com/fp/409b63a4767cfc5d323931171c3a56a9-p_e.jpg\" border=\"0\"></img>","Oberbrunner and Sons","false","1190 W Northern Pkwy","apt. 8PGDABXTZ","Baltimore","MD","21210","United States","39.363187","-76.646249","-76.64625","Z:i.vatsenko@gmail.com","1608720408000","1611314109000","0","39.36319","1581254000005241359","Z:i.vatsenko@gmail.com"
"50593-006","<img src= \"https://photos.zillowstatic.com/fp/f180f9ed41f7fcdbddfdf9dbebee8208-p_e.jpg\" border=\"0\"></img>","Ledner-Swaniawski","false","3145 Honey Run Dr","apt. 84839F2RS","York","PA","17408","United States","39.968723","-76.828283","-76.82828","Z:i.vatsenko@gmail.com","1608720408000","1611314109000","0","39.96872","1581254000005241363","Z:i.vatsenko@gmail.com"
"68180-193","<img src= \"https://photos.zillowstatic.com/fp/faa566724986d098e24d82abc878e24a-p_e.jpg\" border=\"0\"></img>","Stoltenberg-Little","false","301 Pruitt Rd ","Apt. 621","Spring","TX","77380","United States","30.11774","-95.444116","-95.44412","Z:i.vatsenko@gmail.com","1608720408000","1612357464000","0","30.11774","1581254000005241367","Z:i.vatsenko@gmail.com"
"64942-1276","<img src= \"https://photos.zillowstatic.com/fp/2da2238947e44a67e5782647db71c470-p_e.jpg\" border=\"0\"></img>","Schamberger-O'Keefe","false","9500 Williamsburg Plz","apt. 9504-102","Louisville","KY","40222","United States","38.240367","-85.580389","-85.58039","Z:i.vatsenko@gmail.com","1608720408000","1611314109000","0","38.24037","1581254000005241371","Z:i.vatsenko@gmail.com"
"53808-0930","<img src= \"https://photos.zillowstatic.com/fp/2c54080c33560cf469bbbdee9e82adb2-p_e.jpg\" border=\"0\"></img>","Nader, Fay and Stanton","false","1002 Claudia Ln","apt. 0TK1VAEJZ","Findlay","OH","45840","United States","41.08374","-83.671897","-83.6719","Z:i.vatsenko@gmail.com","1608720408000","1611314109000","0","41.08374","1581254000005241375","Z:i.vatsenko@gmail.com"
"49349-043","<img src= \"https://photos.zillowstatic.com/fp/4c5a0e4e894c2185300d76d58a623f12-p_e.jpg\" border=\"0\"></img>","Haag Group","false","135 Old San Antonio Rd","apt. 7301","Boerne","TX","78006","United States","29.762097","-98.70615","-98.70615","Z:i.vatsenko@gmail.com","1608720408000","1611314109000","0","29.7621","1581254000005241379","Z:i.vatsenko@gmail.com"
"49349-796","<img src= \"https://photos.zillowstatic.com/fp/33398bfb2cb4b91deb9dec77a3cfddff-p_e.jpg\" border=\"0\"></img>","Mueller-Hane","false","7015 Skye Bridge Way","apt. 4-319","Charlotte","NC","28278","United States","35.169602","-80.974689","-80.97469","Z:i.vatsenko@gmail.com","1608720408000","1611314109000","0","35.1696","1581254000005241387","Z:i.vatsenko@gmail.com"
"55648-661","<img src= \"https://photos.zillowstatic.com/fp/3cc96973a9587db48d918614f4396e58-p_e.jpg\" border=\"0\"></img>","Schuster, Littel and Crona","false","842 Cobblestone Cir","apt. 13-18","Painesville","OH","44077","United States","41.713798","-81.289373","-81.28937","Z:i.vatsenko@gmail.com","1608720408000","1611314109000","0","41.7138","1581254000005241391","Z:i.vatsenko@gmail.com"
"68180-876","<img src= \"https://photos.zillowstatic.com/fp/c943150eb4b623e7a7c5192e3d3593d1-p_e.jpg\" border=\"0\"></img>","Bailey-Greenfelder","false","9641 N Ambassador Dr","apt. 11-1112","Kansas City","MO","64154","United States","39.265003","-94.651708","-94.65171","Z:i.vatsenko@gmail.com","1608720408000","1611314109000","0","39.265","1581254000005241395","Z:i.vatsenko@gmail.com"
"52125-266","<img src= \"https://photos.zillowstatic.com/fp/bfce40e50f75cb07ab39f00f8e37d95c-p_e.jpg\" border=\"0\"></img>","Gulgowski-Williamson","false","900 Crest Village Cir","apt. 6101","Flowery Branch","GA","30542","United States","34.178655","-83.919149","-83.91915","Z:i.vatsenko@gmail.com","1608720408000","1611314109000","0","34.17866","1581254000005241399","Z:i.vatsenko@gmail.com"
"36987-2747","<img src= \"https://photos.zillowstatic.com/fp/9dba39b4c6b09b024525e5bcdda9565c-p_e.jpg\" border=\"0\"></img>","Zemlak, Wyman and Reichert","false","4820 Kenmore Ave","apt. 4714-303","Alexandria","VA","22304","United States","38.827293","-77.114347","-77.11435","Z:i.vatsenko@gmail.com","1608720408000","1611314109000","0","38.82729","1581254000005241403","Z:i.vatsenko@gmail.com"
"58232-0040","<img src= \"https://photos.zillowstatic.com/fp/881d5deb0ecfad42f3dd48211948fdb3-p_e.jpg\" border=\"0\"></img>","Roob and Sons","false","3132 Sun Lake Ct","","Kissimmee","FL","34747","United States","28.340972","-81.603514","-81.60351","Z:i.vatsenko@gmail.com","1608720408000","1612358470000","0","28.34097","1581254000005241415","Z:i.vatsenko@gmail.com"
"0078-0372","<img src= \"https://photos.zillowstatic.com/fp/025a2066eb362974394fbdcf9e111187-p_e.jpg\" border=\"0\"></img>","Durgan Inc","false","4159 Bisque Ln","","Fort Myers","FL","33916","United States","26.603647","-81.838449","-81.83845","Z:i.vatsenko@gmail.com","1608720408000","1612358470000","0","26.60365","1581254000005241419","Z:i.vatsenko@gmail.com"
"36987-3235","<img src= \"https://photos.zillowstatic.com/fp/251878aef8ef0cd00e6a9ea0c8bcd7e1-p_e.jpg\" border=\"0\"></img>","Hayes, Kuphal and Parisian","false","609 Sibley St NW","apt. 2","Grand Rapids","MI","49504","United States","42.96723","-85.683084","-85.68308","Z:i.vatsenko@gmail.com","1608720408000","1611314109000","0","42.96723","1581254000005241423","Z:i.vatsenko@gmail.com"
"0603-9418","<img src= \"https://photos.zillowstatic.com/fp/c634cbf9262462f092333d59b6427013-p_e.jpg\" border=\"0\"></img>","Haag LLC","false","170 Prospect St","","Belvidere","NJ","7823","United States","40.8308","-75.075767","-75.07577","Z:i.vatsenko@gmail.com","1608720408000","1612358470000","0","40.8308","1581254000005241427","Z:i.vatsenko@gmail.com"
"43074-105","<img src= \"https://photos.zillowstatic.com/fp/09a5febcc7204ec255bb342a9c47ac25-p_e.jpg\" border=\"0\"></img>","Walsh, Cummerata and Dickinson","false","103 Moultrie Dr","apt. 4KHDVHW5Y","Rincon","GA","31326","United States","32.239386","-81.195925","-81.19593","Z:i.vatsenko@gmail.com","1608720408000","1611314109000","0","32.23939","1581254000005241435","Z:i.vatsenko@gmail.com"
"49288-0085","<img src= \"https://photos.zillowstatic.com/fp/c4c3652d7d2c8abf8a33f6f92269ce54-p_e.jpg\" border=\"0\"></img>","Harris, Rutherford and Effertz","false","3821 Avalon Park East Blvd ","Apt. 424","Orlando","FL","32828","United States","28.509659","-81.154336","-81.15434","Z:i.vatsenko@gmail.com","1608720408000","1612357464000","0","28.50966","1581254000005241439","Z:i.vatsenko@gmail.com"
"55910-499","<img src= \"https://photos.zillowstatic.com/fp/ead29fa8231665f4389aa058548cbda5-p_e.jpg\" border=\"0\"></img>","O'Reilly, Bosco and MacGyver","false","604 Bridge St","apt. 1","Westbrook","ME","4092","United States","43.695131","-70.357959","-70.35796","Z:i.vatsenko@gmail.com","1608720408000","1611314109000","0","43.69513","1581254000005241443","Z:i.vatsenko@gmail.com"
"49035-258","<img src= \"https://photos.zillowstatic.com/fp/5422ae9538db5a3fdbaad4dce8561aac-p_e.jpg\" border=\"0\"></img>","Weber-Cruickshank","false","823 S Church St ","Apt. 2206","Greenville","SC","29601","United States","34.839325","-82.399528","-82.39953","Z:i.vatsenko@gmail.com","1608720408000","1612357464000","0","34.83933","1581254000005241447","Z:i.vatsenko@gmail.com"
"55154-5040","<img src= \"https://photos.zillowstatic.com/fp/f74e65f334f6f652c83b0527dbe22813-p_e.jpg\" border=\"0\"></img>","Jacobs, Collier and Langosh","false","51 E Green St","apt. S8ZZGMYTN","Champaign","IL","61820","United States","40.109913","-88.240027","-88.24003","Z:i.vatsenko@gmail.com","1608720408000","1611314109000","0","40.10991","1581254000005241451","Z:i.vatsenko@gmail.com"
"37808-267","<img src= \"https://photos.zillowstatic.com/fp/d9ba164feb9d5dd7daaf15a041efdbb9-p_e.jpg\" border=\"0\"></img>","Boehm, Lakin and Ritchie","true","3000 Dominion Ridge Cir","apt. 2314","Morrisville","NC","27560","United States","35.838818","-78.827711","-78.82771","Z:i.vatsenko@gmail.com","1608720408000","1611314110000","0","35.83882","1581254000005241455","Z:i.vatsenko@gmail.com"
"60429-220","<img src= \"https://photos.zillowstatic.com/fp/16f81946f419febf65abd00b7c578c85-p_e.jpg\" border=\"0\"></img>","Kuphal, Welch and Kuhic","false","10051 Perimeter Station Dr","apt. 328","Charlotte","NC","28216","United States","35.345569","-80.852319","-80.85232","Z:i.vatsenko@gmail.com","1608720408000","1611314110000","0","35.34557","1581254000005241459","Z:i.vatsenko@gmail.com"
"50403-050","<img src= \"https://photos.zillowstatic.com/fp/652d406be7241af93349b73018563f44-p_e.jpg\" border=\"0\"></img>","Considine, Lakin and Ondricka","false","100 Watts Cir","apt. 610","Nashville","TN","37209","United States","36.14343","-86.871314","-86.87131","Z:i.vatsenko@gmail.com","1608720408000","1611314110000","0","36.14343","1581254000005241463","Z:i.vatsenko@gmail.com"
"49035-235","<img src= \"https://photos.zillowstatic.com/fp/5154a392ce3e5ea81d7de2c5e7576ab8-p_e.jpg\" border=\"0\"></img>","Corkery-Rohan","false","527 Lake Ave","apt. 1","Metairie","LA","70005","United States","29.992568","-90.125028","-90.12503","Z:i.vatsenko@gmail.com","1608720408000","1611314110000","0","29.99257","1581254000005241467","Z:i.vatsenko@gmail.com"
"55289-501","<img src= \"https://photos.zillowstatic.com/fp/85a3568bff53e064c265a901dc91aeee-p_e.jpg\" border=\"0\"></img>","Hackett and Sons","false","402 Tuscan Reserve Dr","apt. 6-621","Palm Coast","FL","32164","United States","29.477659","-81.198906","-81.19891","Z:i.vatsenko@gmail.com","1608720408000","1611314110000","0","29.47766","1581254000005241471","Z:i.vatsenko@gmail.com"
"54505-328","<img src= \"https://photos.zillowstatic.com/fp/3ab0a7997c95dd8559d3ba81f67b6644-p_e.jpg\" border=\"0\"></img>","Schowalter Group","false","1625 Roswell Rd","apt. 823","Marietta","GA","30062","United States","33.953944","-84.507381","-84.50738","Z:i.vatsenko@gmail.com","1608720408000","1611314110000","0","33.95394","1581254000005241475","Z:i.vatsenko@gmail.com"
"58930-021","<img src= \"https://photos.zillowstatic.com/fp/71995563aef04e4fd91317156cce695e-p_e.jpg\" border=\"0\"></img>","Kassulke, Kihn and Kuhic","false","5450 Glenridge Dr NE","apt. 1523188","Atlanta","GA","30342","United States","33.904396","-84.37431","-84.37431","Z:i.vatsenko@gmail.com","1608720408000","1611314110000","0","33.9044","1581254000005241479","Z:i.vatsenko@gmail.com"
"0781-3113","<img src= \"https://photos.zillowstatic.com/fp/d3f717aecc727688f059b85c01bb260d-p_e.jpg\" border=\"0\"></img>","Stanton-Waters","false","675 Town Center Dr","apt. D4WW5UUET","Newport News","VA","23606","United States","37.087129","-76.476106","-76.47611","Z:i.vatsenko@gmail.com","1608720408000","1611314110000","0","37.08713","1581254000005241483","Z:i.vatsenko@gmail.com"
"36000-283","<img src= \"https://photos.zillowstatic.com/fp/5c6a3f25eaed6ec63766a30292df88e5-p_e.jpg\" border=\"0\"></img>","Rice LLC","false","900 Discovery Blvd","apt. 10106","Cedar Park","TX","78613","United States","30.522391","-97.817917","-97.81792","Z:i.vatsenko@gmail.com","1608720408000","1611314110000","0","30.52239","1581254000005241487","Z:i.vatsenko@gmail.com"
"21695-805","<img src= \"https://photos.zillowstatic.com/fp/75e9034452b162c5e0eacadc8e661b1b-p_e.jpg\" border=\"0\"></img>","Powlowski-Hackett","false","100 Bridlewood Way","apt. B65-B43","York","PA","17402","United States","39.957011","-76.678389","-76.67839","Z:i.vatsenko@gmail.com","1608720408000","1611314110000","0","39.95701","1581254000005241491","Z:i.vatsenko@gmail.com"
"63629-4492","<img src= \"https://photos.zillowstatic.com/fp/403a1917b25b9af1b0217b6f7cb4fa41-p_e.jpg\" border=\"0\"></img>","Gerhold-Streich","false","2015 Reserve Cir","apt. n9tkva5x3","Rockingham","VA","22801","United States","38.402414","-78.868803","-78.8688","Z:i.vatsenko@gmail.com","1608720408000","1611314110000","0","38.40241","1581254000005241495","Z:i.vatsenko@gmail.com"
"49502-902","<img src= \"https://photos.zillowstatic.com/fp/2bcda907383a665b50478e1c6f9a4b9f-p_e.jpg\" border=\"0\"></img>","Terry-Becker","false","1702 Fm 3036","apt. 45JVKFWQD","Rockport","TX","78382","United States","28.060303","-97.053361","-97.05336","Z:i.vatsenko@gmail.com","1608720408000","1611314110000","0","28.0603","1581254000005241499","Z:i.vatsenko@gmail.com"
"76439-207","<img src= \"https://photos.zillowstatic.com/fp/01ce33092bc8fd2360c3dc5261398a28-p_e.jpg\" border=\"0\"></img>","Becker and Sons","false","570 McDonough Pkwy","apt. 805","Mcdonough","GA","30253","United States","33.444619","-84.16405","-84.16405","Z:i.vatsenko@gmail.com","1608720408000","1611314110000","0","33.44462","1581254000005241503","Z:i.vatsenko@gmail.com"
"60505-3132","<img src= \"https://photos.zillowstatic.com/fp/dde77f700b39b245697caaae8896caa3-p_e.jpg\" border=\"0\"></img>","Hackett-Crona","false","810 Tapestry Way","apt. WAITC1","Knoxville","TN","37932","United States","35.90377","-84.167204","-84.1672","Z:i.vatsenko@gmail.com","1608720408000","1611314110000","0","35.90377","1581254000005241507","Z:i.vatsenko@gmail.com"
"76485-1012","<img src= \"https://photos.zillowstatic.com/fp/9b4cf468b6ff049f38fcf57ae362848f-p_e.jpg\" border=\"0\"></img>","McGlynn and Sons","false","3214 Hewitt Ave","apt. 192","Silver Spring","MD","20906","United States","39.079292","-77.064933","-77.06493","Z:i.vatsenko@gmail.com","1608720408000","1611314110000","0","39.07929","1581254000005241511","Z:i.vatsenko@gmail.com"
"0641-6032","<img src= \"https://photos.zillowstatic.com/fp/d8fd21f2ceec7c5878a027ac2867156a-p_e.jpg\" border=\"0\"></img>","Cummerata, Glover and Baumbach","false","20 Dockside Pkwy","apt. HQHSMMSMJ","East Amherst","NY","14051","United States","43.06168","-78.697411","-78.69741","Z:i.vatsenko@gmail.com","1608720408000","1611314110000","0","43.06168","1581254000005241515","Z:i.vatsenko@gmail.com"
"63629-5013","<img src= \"https://photos.zillowstatic.com/fp/d9d91169ddc0c0672f512de7eb72b398-p_e.jpg\" border=\"0\"></img>","Robel-Wilderman","false","1401 Nandina Dr","apt. 322","Arlington","TX","76014","United States","32.682903","-97.088704","-97.0887","Z:i.vatsenko@gmail.com","1608720408000","1611314110000","0","32.6829","1581254000005241519","Z:i.vatsenko@gmail.com"
"13925-167","<img src= \"https://photos.zillowstatic.com/fp/2958bc257ed713c2e897280e8c876a5c-p_e.jpg\" border=\"0\"></img>","Sauer, Emmerich and Schaden","false","3214 Dunlap Ln","apt. 1K0PYT2Y7","Mechanicsburg","PA","17055","United States","40.194855","-76.944058","-76.94406","Z:i.vatsenko@gmail.com","1608720408000","1611314110000","0","40.19486","1581254000005241523","Z:i.vatsenko@gmail.com"
"49852-175","<img src= \"https://photos.zillowstatic.com/fp/a5eec1190f44e31c6e40ad28d31c4c4e-p_e.jpg\" border=\"0\"></img>","Roberts Group","false","650 Stoney Creek Ln","apt. 1496726","Newport News","VA","23608","United States","37.141701","-76.519049","-76.51905","Z:i.vatsenko@gmail.com","1608720408000","1611314110000","0","37.1417","1581254000005241527","Z:i.vatsenko@gmail.com"
"63629-4901","<img src= \"https://photos.zillowstatic.com/fp/35aa1d19641e758c2e79d9284885f127-p_e.jpg\" border=\"0\"></img>","Labadie-Friesen","false","100 Myrtle St","apt. 1639203","Longwood","FL","32750","United States","28.702267","-81.343731","-81.34373","Z:i.vatsenko@gmail.com","1608720408000","1611314110000","0","28.70227","1581254000005241531","Z:i.vatsenko@gmail.com"
"58118-9130","<img src= \"https://photos.zillowstatic.com/fp/ce21d9e059364500211f9084ef209a07-p_e.jpg\" border=\"0\"></img>","Rosenbaum Inc","false","8680 Baymeadows Rd E","apt. BZX93G353","Jacksonville","FL","32256","United States","30.219122","-81.512072","-81.51207","Z:i.vatsenko@gmail.com","1608720408000","1611314110000","0","30.21912","1581254000005241539","Z:i.vatsenko@gmail.com"
"43538-251","<img src= \"https://photos.zillowstatic.com/fp/a220d932880b3635bbab33c5c83706ea-p_e.jpg\" border=\"0\"></img>","Swaniawski and Sons","false","260 Jameson Way","apt. 1663657","Seven Fields","PA","16046","United States","40.690965","-80.058841","-80.05884","Z:i.vatsenko@gmail.com","1608720408000","1611314110000","0","40.69097","1581254000005241543","Z:i.vatsenko@gmail.com"
"13537-146","<img src= \"https://photos.zillowstatic.com/fp/8714bdf97ba136c7318f247fb82503fc-p_e.jpg\" border=\"0\"></img>","Crist, Spencer and Effertz","false","1696 Pooler Pkwy","apt. 2317","Pooler","GA","31322","United States","32.088347","-81.277412","-81.27741","Z:i.vatsenko@gmail.com","1608720408000","1611314110000","0","32.08835","1581254000005241547","Z:i.vatsenko@gmail.com"
"0363-0663","<img src= \"https://photos.zillowstatic.com/fp/3473e727a0ed433dacc10810abb07511-p_e.jpg\" border=\"0\"></img>","Bashirian-Hermann","false","100 Madison Dr","apt. jqjrsjmmg","Ballston Spa","NY","12020","United States","43.041301","-73.865235","-73.86524","Z:i.vatsenko@gmail.com","1608720408000","1611314110000","0","43.0413","1581254000005241551","Z:i.vatsenko@gmail.com"
"63830-221","<img src= \"https://photos.zillowstatic.com/fp/b055c5cc6b1e99ab2da1a8e84f1d86f9-p_e.jpg\" border=\"0\"></img>","Mante-Kris","false","12600 Parkbury Dr","apt. 4","Orlando","FL","32828","United States","28.559797","-81.19883","-81.19883","Z:i.vatsenko@gmail.com","1608720408000","1611314110000","0","28.5598","1581254000005241555","Z:i.vatsenko@gmail.com"
"35000-087","<img src= \"https://photos.zillowstatic.com/fp/42488607e265bda2cc8e6b893ca345f4-p_e.jpg\" border=\"0\"></img>","Rath, Moore and Schuppe","false","15985 Arbor View Blvd","apt. 6ZFG8H6ZD","Naples","FL","34110","United States","26.313351","-81.793044","-81.79304","Z:i.vatsenko@gmail.com","1608720408000","1611314110000","0","26.31335","1581254000005241559","Z:i.vatsenko@gmail.com"
"43353-035","<img src= \"https://photos.zillowstatic.com/fp/e1adba752edbe6193dc4bb317f00c2fc-p_e.jpg\" border=\"0\"></img>","Gislason, Kulas and Sipes","false","450 S Peachtree Pkwy","apt. 00-V200","Peachtree City","GA","30269","United States","33.370795","-84.553874","-84.55387","Z:i.vatsenko@gmail.com","1608720408000","1611314110000","0","33.3708","1581254000005241563","Z:i.vatsenko@gmail.com"
"60505-3527","<img src= \"https://photos.zillowstatic.com/fp/41da985e3bd3a8266148c3022c432867-p_e.jpg\" border=\"0\"></img>","Wintheiser, Kautzer and Hirthe","false","200 Hampton Ct","apt. A0311","Blacksburg","VA","24060","United States","37.239429","-80.396979","-80.39698","Z:i.vatsenko@gmail.com","1608720408000","1611314110000","0","37.23943","1581254000005241567","Z:i.vatsenko@gmail.com"
"11822-0213","<img src= \"https://photos.zillowstatic.com/fp/362b4d4cd85debde663aa66044a28860-p_e.jpg\" border=\"0\"></img>","Nicolas-Murray","false","8130 Shin Oak Dr","apt. VNWGZB2CX","San Antonio","TX","78233","United States","29.555717","-98.325413","-98.32541","Z:i.vatsenko@gmail.com","1608720408000","1611314110000","0","29.55572","1581254000005241571","Z:i.vatsenko@gmail.com"
"51206-203","<img src= \"https://photos.zillowstatic.com/fp/ac268b609759ec2027b475cd87c9a095-p_e.jpg\" border=\"0\"></img>","Hayes LLC","false","1290 N Ridge Blvd","apt. 3125","Clermont","FL","34711","United States","28.56215","-81.73481","-81.73481","Z:i.vatsenko@gmail.com","1608720408000","1611314110000","0","28.56215","1581254000005241575","Z:i.vatsenko@gmail.com"
"41250-161","<img src= \"https://photos.zillowstatic.com/fp/9a2b5dc0fdfd289905b791ad35813c0b-p_e.jpg\" border=\"0\"></img>","Pfannerstill, Torp and Ankunding","false","9535 N Main St","apt. RNNKJRGQP","Kansas City","MO","64155","United States","39.266085","-94.579173","-94.57917","Z:i.vatsenko@gmail.com","1608720408000","1611314110000","0","39.26609","1581254000005241579","Z:i.vatsenko@gmail.com"
"52125-748","<img src= \"https://photos.zillowstatic.com/fp/bb4cce04eb5f63bbd6b0e1caf8dda7d4-p_e.jpg\" border=\"0\"></img>","Bednar-Greenholt","false","200 Adams Dr","apt. 1651887","Mc Kees Rocks","PA","15136","United States","40.465358","-80.098373","-80.09837","Z:i.vatsenko@gmail.com","1608720408000","1611314110000","0","40.46536","1581254000005241583","Z:i.vatsenko@gmail.com"
"43857-0170","<img src= \"https://photos.zillowstatic.com/fp/880cf4ac54f615f3fb7fea3fd55a9481-p_e.jpg\" border=\"0\"></img>","Bernier, Heidenreich and Jerde","false","20202 Cresta Avenida ","Apt. 13208","San Antonio","TX","78256","United States","29.630662","-98.616669","-98.61667","Z:i.vatsenko@gmail.com","1608720408000","1612357464000","0","29.63066","1581254000005241587","Z:i.vatsenko@gmail.com"
"66993-051","<img src= \"https://photos.zillowstatic.com/fp/7b5bfb678d10657ca9653d2abfa65a0d-p_e.jpg\" border=\"0\"></img>","Olson Group","false","1100 Crystal Spring Ln","apt. 2003","Hermitage","TN","37076","United States","36.173141","-86.610356","-86.61036","Z:i.vatsenko@gmail.com","1608720408000","1611314110000","0","36.17314","1581254000005241591","Z:i.vatsenko@gmail.com"
"36987-1324","<img src= \"https://photos.zillowstatic.com/fp/87e1abce9fd369377593a3e3374f1910-p_e.jpg\" border=\"0\"></img>","Smith LLC","false","3701 Danforth Dr","apt. 1105","Jacksonville","FL","32224","United States","30.278311","-81.458177","-81.45818","Z:i.vatsenko@gmail.com","1608720408000","1611314110000","0","30.27831","1581254000005241595","Z:i.vatsenko@gmail.com"
"76181-001","<img src= \"https://photos.zillowstatic.com/fp/24947a0b766322a0c14c9e60af6a2e89-p_e.jpg\" border=\"0\"></img>","D'Amore-Roob","false","100 Peaks Rdg","apt. VEC8FDATC","Acworth","GA","30102","United States","34.095183","-84.581857","-84.58186","Z:i.vatsenko@gmail.com","1608720408000","1611314110000","0","34.09518","1581254000005241599","Z:i.vatsenko@gmail.com"
"49288-0594","<img src= \"https://photos.zillowstatic.com/fp/a5c6fc23cc1d941d7ead4c549f12788e-p_e.jpg\" border=\"0\"></img>","Kulas, Cartwright and Moen","false","4883 Roswell Rd NE","apt. 8N1WZ9FNH","Atlanta","GA","30342","United States","33.888245","-84.381223","-84.38122","Z:i.vatsenko@gmail.com","1608720408000","1611314110000","0","33.88825","1581254000005241603","Z:i.vatsenko@gmail.com"
"76450-051","<img src= \"https://photos.zillowstatic.com/fp/591207412689c3b7301c49a63f694b30-p_e.jpg\" border=\"0\"></img>","Wyman, Effertz and Deckow","false","3100 S 72nd St","apt. UCTSRUPMC","Lincoln","NE","68506","United States","40.781355","-96.622434","-96.62243","Z:i.vatsenko@gmail.com","1608720408000","1611314110000","0","40.78136","1581254000005241607","Z:i.vatsenko@gmail.com"
"0093-4822","<img src= \"https://photos.zillowstatic.com/fp/685fefe9c6b1e7e20dfacbfea414c1cf-p_e.jpg\" border=\"0\"></img>","Mueller Inc","false","1462 Solera Ter","apt. 55JZDEGHU","Jacksonville","FL","32211","United States","30.33702","-81.554896","-81.5549","Z:i.vatsenko@gmail.com","1608720408000","1611314110000","0","30.33702","1581254000005241611","Z:i.vatsenko@gmail.com"
"55319-031","<img src= \"https://photos.zillowstatic.com/fp/6f1855416146744c3ff530f2ebd5e832-p_e.jpg\" border=\"0\"></img>","Moen, Marquardt and MacGyver","false","8024 Cumberland Park Dr","apt. 11-101","Orlando","FL","32821","United States","28.379603","-81.485142","-81.48514","Z:i.vatsenko@gmail.com","1608720408000","1611314110000","0","28.3796","1581254000005241615","Z:i.vatsenko@gmail.com"
"64205-210","<img src= \"https://photos.zillowstatic.com/fp/7cf7278d79969e1f0efce8a8202dfb3d-p_e.jpg\" border=\"0\"></img>","Metz-O'Conner","false","1820 Sunset Point Rd","apt. 1812B","Clearwater","FL","33765","United States","27.99135","-82.761665","-82.76167","Z:i.vatsenko@gmail.com","1608720408000","1611314110000","0","27.99135","1581254000005241635","Z:i.vatsenko@gmail.com"
"58118-0321","<img src= \"https://photos.zillowstatic.com/fp/22785972d86c1311d9d454a440fc3ded-p_e.jpg\" border=\"0\"></img>","Kuvalis, Witting and Cormier","false","2702 Michigan Ave","apt. QB7VFBX3T","Fort Campbell","KY","42223","United States","36.640735","-87.449341","-87.44934","Z:i.vatsenko@gmail.com","1608720408000","1611314110000","0","36.64074","1581254000005241639","Z:i.vatsenko@gmail.com"
"67777-232","<img src= \"https://photos.zillowstatic.com/fp/b4d8bb367ee3b455c90456fc88d6e2ed-p_e.jpg\" border=\"0\"></img>","Klein-Parisian","false","3740 Walton Way SE","apt. 305","Smyrna","GA","30082","United States","33.858416","-84.524307","-84.52431","Z:i.vatsenko@gmail.com","1608720408000","1611314110000","0","33.85842","1581254000005241647","Z:i.vatsenko@gmail.com"
"0904-5990","<img src= \"https://photos.zillowstatic.com/fp/c1d63023555bc71f1c6f4c29df42e955-p_e.jpg\" border=\"0\"></img>","Marvin, Ebert and Hand","false","3021 State Road 590","apt. 530","Clearwater","FL","33759","United States","27.980647","-82.712138","-82.71214","Z:i.vatsenko@gmail.com","1608720408000","1611314110000","0","27.98065","1581254000005241651","Z:i.vatsenko@gmail.com"
"48951-8099","<img src= \"https://photos.zillowstatic.com/fp/98e0b57ef4b56e59ea3c7ee5c0cd4d55-p_e.jpg\" border=\"0\"></img>","McGlynn-Johnston","false","101 Signature Way","apt. 811","Hampton","VA","23666","United States","37.052856","-76.390041","-76.39004","Z:i.vatsenko@gmail.com","1608720408000","1611314110000","0","37.05286","1581254000005241655","Z:i.vatsenko@gmail.com"
"52125-408","<img src= \"https://photos.zillowstatic.com/fp/92871c0bec4b88f936c5a78501f9c784-p_e.jpg\" border=\"0\"></img>","Denesik-Oberbrunner","false","101 Augusta Dr","apt. 955YDD0TC","Ocean View","DE","19970","United States","38.531457","-75.116098","-75.1161","Z:i.vatsenko@gmail.com","1608720408000","1611314110000","0","38.53146","1581254000005241659","Z:i.vatsenko@gmail.com"
"55533-682","<img src= \"https://photos.zillowstatic.com/fp/8d451a497b796cefabe21f2b7cfbeec2-p_e.jpg\" border=\"0\"></img>","Waters LLC","false","101 Spring Lakes Dr ","Apt. 1106","Pt Wentworth","GA","31407","United States","32.173017","-81.240061","-81.24006","Z:i.vatsenko@gmail.com","1608720408000","1612357464000","0","32.17302","1581254000005241663","Z:i.vatsenko@gmail.com"
"52125-872","<img src= \"https://photos.zillowstatic.com/fp/0f16c3778d12d323eca4288acb8ecef0-p_e.jpg\" border=\"0\"></img>","Wilderman Group","false","5816 Halley Way","apt. 5816-111","Madison","WI","53718","United States","43.088202","-89.281412","-89.28141","Z:i.vatsenko@gmail.com","1608720408000","1611314110000","0","43.0882","1581254000005241667","Z:i.vatsenko@gmail.com"
"0006-0577","<img src= \"https://photos.zillowstatic.com/fp/9c490a0dd205835646fce7441324c582-p_e.jpg\" border=\"0\"></img>","Stoltenberg-Medhurst","false","780 Creekwater Ter","apt. 1407874","Lake Mary","FL","32746","United States","28.749833","-81.344202","-81.3442","Z:i.vatsenko@gmail.com","1608720408000","1611314110000","0","28.74983","1581254000005241671","Z:i.vatsenko@gmail.com"
"64092-802","<img src= \"https://photos.zillowstatic.com/fp/4452a3eb130884359507dd28e7786815-p_e.jpg\" border=\"0\"></img>","Satterfield, Padberg and Hermiston","false","100 Armory St","apt. 1665272","Newport News","VA","23602","United States","37.105616","-76.463703","-76.4637","Z:i.vatsenko@gmail.com","1608720408000","1611314110000","0","37.10562","1581254000005241675","Z:i.vatsenko@gmail.com"
"0046-2575","<img src= \"https://photos.zillowstatic.com/fp/06ebe4f7136b9823d64fd87e83054292-p_e.jpg\" border=\"0\"></img>","Quigley, Littel and Hilpert","false","9000 Summit Centre Way","apt. 4-302","Orlando","FL","32810","United States","28.638923","-81.408315","-81.40832","Z:i.vatsenko@gmail.com","1608720408000","1611314110000","0","28.63892","1581254000005241687","Z:i.vatsenko@gmail.com"
"52125-929","<img src= \"https://photos.zillowstatic.com/fp/621de1f160da158c8088913cc2f7fe21-p_e.jpg\" border=\"0\"></img>","Dicki and Sons","false","493 High St","","Milford","CT","6461","United States","41.231735","-73.070491","-73.07049","Z:i.vatsenko@gmail.com","1608720408000","1612358470000","0","41.23174","1581254000005241691","Z:i.vatsenko@gmail.com"
"36800-405","<img src= \"https://photos.zillowstatic.com/fp/88d6fce46601c062d62f15c22702f744-p_e.jpg\" border=\"0\"></img>","Parker-Morar","false","2255 Satellite Blvd ","Apt. H107","Duluth","GA","30097","United States","33.981308","-84.094252","-84.09425","Z:i.vatsenko@gmail.com","1608720408000","1612357464000","0","33.98131","1581254000005241695","Z:i.vatsenko@gmail.com"
"37205-022","<img src= \"https://photos.zillowstatic.com/fp/414e5351249a8c5c22d097a5bfae9ad4-p_e.jpg\" border=\"0\"></img>","Kohler Group","false","5420 E Michigan St","apt. 1","Orlando","FL","32812","United States","28.512938","-81.31637","-81.31637","Z:i.vatsenko@gmail.com","1608720408000","1611314110000","0","28.51294","1581254000005241699","Z:i.vatsenko@gmail.com"
"76237-157","<img src= \"https://photos.zillowstatic.com/fp/64f8e60a7d4ad76d4d6638c7efe001c3-p_e.jpg\" border=\"0\"></img>","Trantow, Veum and Halvorson","false","2477 Farm To Market Rd","apt. 1037","Conroe","TX","77384","United States","30.2222","-95.4865","-95.4865","Z:i.vatsenko@gmail.com","1608720408000","1611314110000","0","30.2222","1581254000005241703","Z:i.vatsenko@gmail.com"
"41163-390","<img src= \"https://photos.zillowstatic.com/fp/58cf5806ae2ee9ec32f1d8cda3de65f1-p_e.jpg\" border=\"0\"></img>","Herman, Konopelski and Heller","false","5117 Cypress Branch Point","","Oviedo","FL","32765","United States","28.621986","-81.259517","-81.25952","Z:i.vatsenko@gmail.com","1608720408000","1612358470000","0","28.62199","1581254000005241707","Z:i.vatsenko@gmail.com"
"34690-6001","<img src= \"https://photos.zillowstatic.com/fp/19d5e8d977e438e077339fe8c6b6da32-p_e.jpg\" border=\"0\"></img>","Bins, Purdy and Kunde","false","680 Park Bridge Pkwy","apt. 11104","Alpharetta","GA","30005","United States","34.066875","-84.239593","-84.23959","Z:i.vatsenko@gmail.com","1608720408000","1611314110000","0","34.06688","1581254000005241715","Z:i.vatsenko@gmail.com"
"75921-045","<img src= \"https://photos.zillowstatic.com/fp/ce417bee72f08caef529bb66e8443c85-p_e.jpg\" border=\"0\"></img>","Gulgowski Group","false","1515 Goldrush","apt. 1449","Rochester","MI","48307","United States","42.672558","-83.101173","-83.10117","Z:i.vatsenko@gmail.com","1608720408000","1611314110000","0","42.67256","1581254000005241719","Z:i.vatsenko@gmail.com"
"55154-6984","<img src= \"https://photos.zillowstatic.com/fp/8d2b88ae7d658187324661d444856c0e-p_e.jpg\" border=\"0\"></img>","Boyer Group","false","310 Highroad Dr","apt. 10-102","Charlotte","NC","28262","United States","35.324492","-80.73456","-80.73456","Z:i.vatsenko@gmail.com","1608720408000","1611314110000","0","35.32449","1581254000005241723","Z:i.vatsenko@gmail.com"
"66961-100","<img src= \"https://photos.zillowstatic.com/fp/17a3700de36c6b71886c17e1fa9dd0a1-p_e.jpg\" border=\"0\"></img>","Satterfield and Sons","false","704 Tanager Dr","apt. 28DH8RTNX","State College","PA","16803","United States","40.78765","-77.898381","-77.89838","Z:i.vatsenko@gmail.com","1608720408000","1611314110000","0","40.78765","1581254000005241727","Z:i.vatsenko@gmail.com"
"0074-8110","<img src= \"https://photos.zillowstatic.com/fp/e53e289a24c036569ba8c4b807b758d7-p_e.jpg\" border=\"0\"></img>","Rodriguez-Hessel","false","21560 Green Tree Dr","apt. 449MVA13E","Lexington Park","MD","20653","United States","38.257331","-76.450088","-76.45009","Z:i.vatsenko@gmail.com","1608720408000","1611314110000","0","38.25733","1581254000005241735","Z:i.vatsenko@gmail.com"
"0378-0055","<img src= \"https://photos.zillowstatic.com/fp/794d381373942fbb7f28d470da1b2e30-p_e.jpg\" border=\"0\"></img>","Kuhlman-Bergstrom","false","4152 Merrillville Dr","apt. RREG7HHK1","West Melbourne","FL","32904","United States","28.083688","-80.740324","-80.74032","Z:i.vatsenko@gmail.com","1608720408000","1611314110000","0","28.08369","1581254000005241739","Z:i.vatsenko@gmail.com"
"50383-565","<img src= \"https://photos.zillowstatic.com/fp/81024fc94c810187ef802f94c791418c-p_e.jpg\" border=\"0\"></img>","Becker LLC","false","10 Mcfarland Dr","apt. MYJBEDBRE","Newark","DE","19702","United States","39.626512","-75.699645","-75.69965","Z:i.vatsenko@gmail.com","1608720408000","1611314110000","0","39.62651","1581254000005241743","Z:i.vatsenko@gmail.com"
"57237-080","<img src= \"https://photos.zillowstatic.com/fp/277d60d7e9b9592099925a77d5eccb23-p_e.jpg\" border=\"0\"></img>","Hyatt Inc","false","4305 S Carrollton Ave","apt. A","New Orleans","LA","70119","United States","29.970882","-90.105078","-90.10508","Z:i.vatsenko@gmail.com","1608720408000","1611314110000","0","29.97088","1581254000005241747","Z:i.vatsenko@gmail.com"
"37000-404","<img src= \"https://photos.zillowstatic.com/fp/7ed505eea3700160b4cda2ae260b9191-p_e.jpg\" border=\"0\"></img>","Kuhlman Inc","true","1137 Greenlea Blvd","apt. 25gvu3zms","Gallatin","TN","37066","United States","36.363352","-86.505649","-86.50565","Z:i.vatsenko@gmail.com","1608720408000","1611314110000","0","36.36335","1581254000005241755","Z:i.vatsenko@gmail.com"
"49288-0167","<img src= \"https://photos.zillowstatic.com/fp/f349e15bb0539d2a551966272f4a65e4-p_e.jpg\" border=\"0\"></img>","Collins-Schiller","false","4501 Marshall Run Cir","apt. 1498982","Glen Allen","VA","23059","United States","37.663746","-77.626227","-77.62623","Z:i.vatsenko@gmail.com","1608720408000","1611314110000","0","37.66375","1581254000005241759","Z:i.vatsenko@gmail.com"
"55648-412","<img src= \"https://photos.zillowstatic.com/fp/661b384583904e921b2b8ead405a4a35-p_e.jpg\" border=\"0\"></img>","Connelly-Runte","false","100 Garden Dr","apt. 225","Valdosta","GA","31602","United States","30.874326","-83.287264","-83.28726","Z:i.vatsenko@gmail.com","1608720408000","1611314110000","0","30.87433","1581254000005241771","Z:i.vatsenko@gmail.com"
"43239-201","<img src= \"https://photos.zillowstatic.com/fp/b65f9f8182624ca1c068cfe4fb06606a-p_e.jpg\" border=\"0\"></img>","Lesch and Sons","true","595 W Church St","apt. 1622783","Orlando","FL","32805","United States","28.540652","-81.386196","-81.3862","Z:i.vatsenko@gmail.com","1608720408000","1611314110000","0","28.54065","1581254000005241779","Z:i.vatsenko@gmail.com"
"57520-0512","<img src= \"https://photos.zillowstatic.com/fp/6032e6e7f41a6b6666d6493a2b8c6abe-p_e.jpg\" border=\"0\"></img>","Kihn, Kutch and Senger","false","2030 Wildts Battery Blvd","apt. 2_215","Johns Island","SC","29455","United States","32.737201","-80.046353","-80.04635","Z:i.vatsenko@gmail.com","1608720408000","1611314110000","0","32.7372","1581254000005241783","Z:i.vatsenko@gmail.com"
"55714-4551","<img src= \"https://photos.zillowstatic.com/fp/6f91e8a179efd35ce366252dee95de90-p_e.jpg\" border=\"0\"></img>","Bechtelar, Franecki and Langosh","false","1122 Greenstone Blvd","apt. 136-203","Lake Mary","FL","32746","United States","28.773195","-81.365836","-81.36584","Z:i.vatsenko@gmail.com","1608720408000","1611314110000","0","28.7732","1581254000005241787","Z:i.vatsenko@gmail.com"
"64942-1022","<img src= \"https://photos.zillowstatic.com/fp/e82cd20f2bff0cd1511edc16555d2485-p_e.jpg\" border=\"0\"></img>","Heller, Quigley and Fay","false","9825 Gate Pkwy","apt. 11102","Jacksonville","FL","32246","United States","30.261111","-81.547372","-81.54737","Z:i.vatsenko@gmail.com","1608720408000","1611314110000","0","30.26111","1581254000005241791","Z:i.vatsenko@gmail.com"
"50730-1450","<img src= \"https://photos.zillowstatic.com/fp/b7cb6974f4e188f5a8e7fb22b4a1090d-p_e.jpg\" border=\"0\"></img>","Champlin Group","false","400 Stone Lion Dr","apt. 7070304","Durham","NC","27703","United States","35.941127","-78.863293","-78.86329","Z:i.vatsenko@gmail.com","1608720408000","1611314110000","0","35.94113","1581254000005241795","Z:i.vatsenko@gmail.com"
"24385-604","<img src= \"https://photos.zillowstatic.com/fp/bcc86ad7f828a964ecb17732bd082b46-p_e.jpg\" border=\"0\"></img>","Ziemann Inc","false","895 Broadstone Way","apt. 67677","Altamonte Springs","FL","32714","United States","28.644255","-81.410443","-81.41044","Z:i.vatsenko@gmail.com","1608720408000","1611314110000","0","28.64426","1581254000005241799","Z:i.vatsenko@gmail.com"
"0409-1933","<img src= \"https://photos.zillowstatic.com/fp/34ff76bb135728d84be18e6d7c83d4dc-p_e.jpg\" border=\"0\"></img>","Welch and Sons","false","4340 Decatur Dr ","Apt. 6214","College Station","TX","77845","United States","30.56098","-96.267279","-96.26728","Z:i.vatsenko@gmail.com","1608720408000","1612357464000","0","30.56098","1581254000005241803","Z:i.vatsenko@gmail.com"
"53345-008","<img src= \"https://photos.zillowstatic.com/fp/7329589c38f1f86783541d66c394cb16-p_e.jpg\" border=\"0\"></img>","Johnson-Trantow","false","404 Gallop Ln","apt. 3214","Charlotte","NC","28213","United States","35.284318","-80.761669","-80.76167","Z:i.vatsenko@gmail.com","1608720408000","1611314110000","0","35.28432","1581254000005241807","Z:i.vatsenko@gmail.com"
"62045-6333","<img src= \"https://photos.zillowstatic.com/fp/96c47b0eb074a40f63c94ebc5cf1b419-p_e.jpg\" border=\"0\"></img>","Balistreri LLC","false","1480 Wrightsboro Rd","apt. 3108","Augusta","GA","30901","United States","33.465134","-81.992904","-81.9929","Z:i.vatsenko@gmail.com","1608720408000","1611314110000","0","33.46513","1581254000005241811","Z:i.vatsenko@gmail.com"
"0378-0373","<img src= \"https://photos.zillowstatic.com/fp/f196bcc74e9562eb8b6db045bff5842f-p_e.jpg\" border=\"0\"></img>","Walsh, Simonis and Koss","false","400 Creek Rd","apt. 511","Dripping Springs","TX","78620","United States","30.190288","-98.10025","-98.10025","Z:i.vatsenko@gmail.com","1608720408000","1611314110000","0","30.19029","1581254000005241815","Z:i.vatsenko@gmail.com"
"44567-312","<img src= \"https://photos.zillowstatic.com/fp/d6906fd91a7d66ce6e215beddf844ebd-p_e.jpg\" border=\"0\"></img>","Pfeffer LLC","false","3770 George Busbee Pkwy","apt. 147935","Kennesaw","GA","30144","United States","34.044681","-84.574","-84.574","Z:i.vatsenko@gmail.com","1608720408000","1611314110000","0","34.04468","1581254000005241819","Z:i.vatsenko@gmail.com"
"49738-072","<img src= \"https://photos.zillowstatic.com/fp/46659b464e07d7e858534f005cd3f690-p_e.jpg\" border=\"0\"></img>","Beier, Bode and Hessel","false","1240 Stonewood Xing","apt. 36KYBH6FE","Sun Prairie","WI","53590","United States","43.199577","-89.225241","-89.22524","Z:i.vatsenko@gmail.com","1608720408000","1611314110000","0","43.19958","1581254000005241823","Z:i.vatsenko@gmail.com"
"54868-5905","<img src= \"https://photos.zillowstatic.com/fp/5cb10148109b39479c32db2901bf5609-p_e.jpg\" border=\"0\"></img>","Streich Group","false","5402 Ramsey St","apt. 9599980","Duluth","MN","55807","United States","46.738797","-92.165465","-92.16547","Z:i.vatsenko@gmail.com","1608720408000","1611314110000","0","46.7388","1581254000005241827","Z:i.vatsenko@gmail.com"
"51386-712","<img src= \"https://photos.zillowstatic.com/fp/608bcd613e4edead8aa6609121bcbda1-p_e.jpg\" border=\"0\"></img>","Abshire-Daugherty","false","117 Sassafras Way","apt. 520","Bridgeport","WV","26330","United States","39.314152","-80.286465","-80.28647","Z:i.vatsenko@gmail.com","1608720408000","1611314110000","0","39.31415","1581254000005241831","Z:i.vatsenko@gmail.com"
"13533-636","<img src= \"https://photos.zillowstatic.com/fp/505dc94588535ec63856d44ac7a3bb25-p_e.jpg\" border=\"0\"></img>","Fisher-Fadel","false","91 Main St","apt. YZ03GNYPB","Warren","RI","2885","United States","41.736247","-71.286825","-71.28683","Z:i.vatsenko@gmail.com","1608720408000","1611314110000","0","41.73625","1581254000005241835","Z:i.vatsenko@gmail.com"
"13668-109","<img src= \"https://photos.zillowstatic.com/fp/f81dde11dc2044ddf5382b14f9cad338-p_e.jpg\" border=\"0\"></img>","Abbott, McClure and Weimann","false","4428 Mill Village Rd","apt. 4627","Raleigh","NC","27612","United States","35.841538","-78.691483","-78.69148","Z:i.vatsenko@gmail.com","1608720408000","1611314110000","0","35.84154","1581254000005241839","Z:i.vatsenko@gmail.com"
"52125-079","<img src= \"https://photos.zillowstatic.com/fp/fc1dd057264be82a02aaaf74ba17984f-p_e.jpg\" border=\"0\"></img>","White, Schneider and Lebsack","false","356 S Chesire Ct","apt. 418CH","Virginia Beach","VA","23454","United States","36.845187","-76.029165","-76.02917","Z:i.vatsenko@gmail.com","1608720408000","1611314110000","0","36.84519","1581254000005241843","Z:i.vatsenko@gmail.com"
"11822-2891","<img src= \"https://photos.zillowstatic.com/fp/22d600b6895b7a01ac3364e029195778-p_e.jpg\" border=\"0\"></img>","Zieme LLC","false","130 Ocean Aisle Cir","apt. 101","Salisbury","MD","21804","United States","38.372257","-75.557187","-75.55719","Z:i.vatsenko@gmail.com","1608720408000","1611314110000","0","38.37226","1581254000005241847","Z:i.vatsenko@gmail.com"
"25021-826","<img src= \"https://photos.zillowstatic.com/fp/fb1440f6203f320b4a97bf42bd7bf870-p_e.jpg\" border=\"0\"></img>","Boyle, Swaniawski and Kunze","false","1A Lakeview Dr","apt. 43C","Clifton Park","NY","12065","United States","42.8532","-73.7682","-73.7682","Z:i.vatsenko@gmail.com","1608720408000","1611314110000","0","42.8532","1581254000005241851","Z:i.vatsenko@gmail.com"
"57344-155","<img src= \"https://photos.zillowstatic.com/fp/23db0cdc0d67f882d803688df6dd761b-p_e.jpg\" border=\"0\"></img>","Bosco LLC","false","111 73rd Ave N","apt. 3SGM6NNSK","Saint Petersburg","FL","33702","United States","27.838539","-82.636687","-82.63669","Z:i.vatsenko@gmail.com","1608720408000","1611314110000","0","27.83854","1581254000005241855","Z:i.vatsenko@gmail.com"
"0168-0381","<img src= \"https://photos.zillowstatic.com/fp/3554172651c88a26552c158e17fe700a-p_e.jpg\" border=\"0\"></img>","Jast LLC","false","5530 Ambassador Caffrey Blvd","apt. 8308","Lafayette","LA","70508","United States","30.156523","-92.027506","-92.02751","Z:i.vatsenko@gmail.com","1608720408000","1611314110000","0","30.15652","1581254000005241859","Z:i.vatsenko@gmail.com"
"60899-010","<img src= \"https://photos.zillowstatic.com/fp/aa91e3d7bae055be1788dae5739a91f2-p_e.jpg\" border=\"0\"></img>","Erdman, Goodwin and Daugherty","false","1 Abby Ln","apt. SPQJNSRJN","Ballston Lake","NY","12019","United States","42.958617","-73.841589","-73.84159","Z:i.vatsenko@gmail.com","1608720408000","1611314110000","0","42.95862","1581254000005241863","Z:i.vatsenko@gmail.com"
"57520-0462","<img src= \"https://photos.zillowstatic.com/fp/69738caa337880277d9600ea7752e18f-p_e.jpg\" border=\"0\"></img>","Wehner LLC","false","3501 N Blair Stone Rd","apt. 747","Tallahassee","FL","32301","United States","30.405093","-84.242063","-84.24206","Z:i.vatsenko@gmail.com","1608720408000","1611314110000","0","30.40509","1581254000005241867","Z:i.vatsenko@gmail.com"
"0071-1013","<img src= \"https://photos.zillowstatic.com/fp/e7319ca5f15a31ffaaa364ead8805328-p_e.jpg\" border=\"0\"></img>","Bradtke LLC","false","1100 S Loop 336 W","apt. 1407","Conroe","TX","77304","United States","30.284024","-95.474938","-95.47494","Z:i.vatsenko@gmail.com","1608720408000","1611314110000","0","30.28402","1581254000005241871","Z:i.vatsenko@gmail.com"
"55741-304","<img src= \"https://photos.zillowstatic.com/fp/1e81fda7d83ecee6bb60be823c81df70-p_e.jpg\" border=\"0\"></img>","Lockman LLC","false","2735 Westminster Cir","apt. 1667301","Allison Park","PA","15101","United States","40.591157","-79.953146","-79.95315","Z:i.vatsenko@gmail.com","1608720408000","1611314110000","0","40.59116","1581254000005241879","Z:i.vatsenko@gmail.com"
"49348-639","<img src= \"https://photos.zillowstatic.com/fp/b9b90c719a2fe103301aa28ef3da4eef-p_e.jpg\" border=\"0\"></img>","Berge-Stracke","false","1530 River Tree Dr","apt. 03858gzkf","Chester","VA","23836","United States","37.336225","-77.336031","-77.33603","Z:i.vatsenko@gmail.com","1608720408000","1611314110000","0","37.33623","1581254000005241883","Z:i.vatsenko@gmail.com"
"68786-211","<img src= \"https://photos.zillowstatic.com/fp/03c80a55565cbaaee4ae639f948c5202-p_e.jpg\" border=\"0\"></img>","Abbott, Grant and Lynch","false","100 Old Village Way","apt. 2824","Oldsmar","FL","34677","United States","28.040515","-82.681123","-82.68112","Z:i.vatsenko@gmail.com","1608720408000","1611314110000","0","28.04052","1581254000005241887","Z:i.vatsenko@gmail.com"
"0603-2435","<img src= \"https://photos.zillowstatic.com/fp/32d4d559053d6f74bffa41597f649cdd-p_e.jpg\" border=\"0\"></img>","Lang Group","false","8055 Janes Ave","apt. 8043","Woodridge","IL","60517","United States","41.739556","-88.037417","-88.03742","Z:i.vatsenko@gmail.com","1608720408000","1611314110000","0","41.73956","1581254000005241895","Z:i.vatsenko@gmail.com"
"59054-120","<img src= \"https://photos.zillowstatic.com/fp/e227e860134f3431b92bb25dce066a09-p_e.jpg\" border=\"0\"></img>","Lowe Inc","false","3321 S Cheekwood Ln","apt. 6CDP3G1KS","Bloomington","IN","47401","United States","39.13064","-86.498693","-86.49869","Z:i.vatsenko@gmail.com","1608720408000","1611314110000","0","39.13064","1581254000005241903","Z:i.vatsenko@gmail.com"
"65044-5170","<img src= \"https://photos.zillowstatic.com/fp/023b5b88e5f7e628fb149aaad2a713e3-p_e.jpg\" border=\"0\"></img>","Kerluke, Harber and Lehner","false","3632 Sequoia Dr","","Dayton","OH","45431","United States","39.769201","-84.06677","-84.06677","Z:i.vatsenko@gmail.com","1608720408000","1612358470000","0","39.7692","1581254000005241907","Z:i.vatsenko@gmail.com"
"43063-308","<img src= \"https://photos.zillowstatic.com/fp/f934de55437f8287bb74e707a45f3833-p_e.jpg\" border=\"0\"></img>","Reichel, Smith and Feil","false","10320 Grobie Way","apt. 1-105","Charlotte","NC","28216","United States","35.363025","-80.856952","-80.85695","Z:i.vatsenko@gmail.com","1608720408000","1611314110000","0","35.36303","1581254000005241911","Z:i.vatsenko@gmail.com"
"33992-3005","<img src= \"https://photos.zillowstatic.com/fp/a14a033bb64f03b750ab10f305a5334a-p_e.jpg\" border=\"0\"></img>","Kemmer, Skiles and Jaskolski","false","500 Shady Summit Way","apt. 1332SS","Raleigh","NC","27603","United States","35.664827","-78.694624","-78.69462","Z:i.vatsenko@gmail.com","1608720408000","1611314110000","0","35.66483","1581254000005241915","Z:i.vatsenko@gmail.com"
"41250-291","<img src= \"https://photos.zillowstatic.com/fp/5b64300ca1d75dcfc8a825bdb4c4bc63-p_e.jpg\" border=\"0\"></img>","Schowalter Group","false","6565 Premier Dr","apt. 55GKHC05V","Nashville","TN","37209","United States","36.143136","-86.881298","-86.8813","Z:i.vatsenko@gmail.com","1608720408000","1611314110000","0","36.14314","1581254000005241919","Z:i.vatsenko@gmail.com"
"55154-4217","<img src= \"https://photos.zillowstatic.com/fp/4870b0dce137565ec1a7605ea0139c61-p_e.jpg\" border=\"0\"></img>","Schmeler and Sons","false","5602 Presidio Pkwy","apt. 3302","San Antonio","TX","78249","United States","29.583923","-98.592713","-98.59271","Z:i.vatsenko@gmail.com","1608720408000","1611314110000","0","29.58392","1581254000005241923","Z:i.vatsenko@gmail.com"
"13734-136","<img src= \"https://photos.zillowstatic.com/fp/8a713cccc3d4e285e3302d7f01d5e618-p_e.jpg\" border=\"0\"></img>","Reinger-Jenkins","false","302 E Kendall Dr","apt. MHDHYV163","Yorkville","IL","60560","United States","41.664509","-88.443457","-88.44346","Z:i.vatsenko@gmail.com","1608720408000","1611314110000","0","41.66451","1581254000005241931","Z:i.vatsenko@gmail.com"
"52125-460","<img src= \"https://photos.zillowstatic.com/fp/aff3a6e534cfeb3c0af9bdcae11d6837-p_e.jpg\" border=\"0\"></img>","Powlowski, Gusikowski and Prohaska","false","1407 Sidney Baker St","apt. 9V87C0E1W","Kerrville","TX","78028","United States","30.057445","-99.128636","-99.12864","Z:i.vatsenko@gmail.com","1608720408000","1611314110000","0","30.05745","1581254000005241935","Z:i.vatsenko@gmail.com"
"43419-311","<img src= \"https://photos.zillowstatic.com/fp/f5edfdaa076b5dbc15023e0763286b72-p_e.jpg\" border=\"0\"></img>","Grady, Pouros and Mraz","false","2751 24th Ave NE","apt. 641syz23p","Norman","OK","73071","United States","35.248841","-97.405887","-97.40589","Z:i.vatsenko@gmail.com","1608720408000","1611314110000","0","35.24884","1581254000005241939","Z:i.vatsenko@gmail.com"
"41250-854","<img src= \"https://photos.zillowstatic.com/fp/0a7a12c05cf7e3e8864944dff9775821-p_e.jpg\" border=\"0\"></img>","Breitenberg, Bednar and Kshlerin","false","2471 Ascent Way","apt. 5307","Plainfield","IN","46168","United States","39.707322","-86.360999","-86.361","Z:i.vatsenko@gmail.com","1608720408000","1611314110000","0","39.70732","1581254000005241943","Z:i.vatsenko@gmail.com"
"0093-7316","<img src= \"https://photos.zillowstatic.com/fp/338b4ca8a72735a04ba219e2d5effbc1-p_e.jpg\" border=\"0\"></img>","Schmidt LLC","false","800 5th St","apt. 1","Beaver","PA","15009","United States","40.698004","-80.310041","-80.31004","Z:i.vatsenko@gmail.com","1608720408000","1611314110000","0","40.698","1581254000005241947","Z:i.vatsenko@gmail.com"
"36987-2404","<img src= \"https://photos.zillowstatic.com/fp/7a10c94f8dd22c9e68f0f5e0ee8da9f7-p_e.jpg\" border=\"0\"></img>","Russel Inc","false","11 Century Dr","apt. 1211","Greenville","SC","29607","United States","34.857895","-82.363854","-82.36385","Z:i.vatsenko@gmail.com","1608720408000","1611314110000","0","34.8579","1581254000005241951","Z:i.vatsenko@gmail.com"
"49035-242","<img src= \"https://photos.zillowstatic.com/fp/c83baf0be24b13ab8cb8afd810622c97-p_e.jpg\" border=\"0\"></img>","Walker-Cremin","false","16333 Columns Way","apt. WAITC1A","Baton Rouge","LA","70817","United States","30.367005","-91.011719","-91.01172","Z:i.vatsenko@gmail.com","1608720408000","1611314111000","0","30.36701","1581254000005241955","Z:i.vatsenko@gmail.com"
"52584-495","<img src= \"https://photos.zillowstatic.com/fp/ba2219a6a7cc3dddd685ed126803daf6-p_e.jpg\" border=\"0\"></img>","Zboncak LLC","false","11450 NW 45th St","apt. 11454-1145","Pompano Beach","FL","33065","United States","26.285509","-80.279247","-80.27925","Z:i.vatsenko@gmail.com","1608720408000","1611314111000","0","26.28551","1581254000005241963","Z:i.vatsenko@gmail.com"
"21695-791","<img src = \"https://photos.zillowstatic.com/fp/3bbe91ebbd1ca56c13ef698861e34435-p_e.jpg\" border = \"0\"></img>","Kihn, Towne and McCullough","true","1206 Regency Ct","","Chattanooga","TN","37421","United States","35.02978685","-85.1551111831664","-85.15511","Z:i.vatsenko@gmail.com","1608720408000","1612358033000","0","35.02979","1581254000005241971","Z:i.vatsenko@gmail.com"
"64543-105","<img src= \"https://photos.zillowstatic.com/fp/bdc0d6f3264444d25b2bf0a200e7fac1-p_e.jpg\" border=\"0\"></img>","Becker-Casper","false","300 Standish Dr","","Chapel Hill","NC","27517","United States","35.942285","-79.006858","-79.00686","Z:i.vatsenko@gmail.com","1608720408000","1612358470000","0","35.94229","1581254000005241975","Z:i.vatsenko@gmail.com"
"37000-355","<img src= \"https://photos.zillowstatic.com/fp/82701d3422b7d8768ae95f4c61d82eaa-p_e.jpg\" border=\"0\"></img>","Watsica, Yost and Erdman","false","7825 NW 40th St","apt. A","Coral Springs","FL","33065","United States","26.27968","-80.232898","-80.2329","Z:i.vatsenko@gmail.com","1608720408000","1611314111000","0","26.27968","1581254000005241979","Z:i.vatsenko@gmail.com"
"63481-623","<img src= \"https://photos.zillowstatic.com/fp/881006f740ee233847e2fb54bdd20fad-p_e.jpg\" border=\"0\"></img>","Hessel-Franecki","false","129 Breno Dr Space 157A","","Webster","NY","14580","United States","43.217678","-77.436534","-77.43653","Z:i.vatsenko@gmail.com","1608720408000","1612358470000","0","43.21768","1581254000005241987","Z:i.vatsenko@gmail.com"
"0143-9720","<img src= \"https://photos.zillowstatic.com/fp/68f5c1201931e00d9de20f0c07f312aa-p_e.jpg\" border=\"0\"></img>","Mosciski and Sons","false","810 Eden Ave","apt. 9-307","Fort Mill","SC","29708","United States","35.061357","-80.995831","-80.99583","Z:i.vatsenko@gmail.com","1608720408000","1611314111000","0","35.06136","1581254000005241991","Z:i.vatsenko@gmail.com"
"55118-993","<img src= \"https://photos.zillowstatic.com/fp/43eda392ba737f72b804d6ed428c4ddd-p_e.jpg\" border=\"0\"></img>","Murray-Howell","false","149 S Budding Ave","apt. 241-203","Virginia Beach","VA","23452","United States","36.834242","-76.120303","-76.1203","Z:i.vatsenko@gmail.com","1608720408000","1611314111000","0","36.83424","1581254000005241995","Z:i.vatsenko@gmail.com"
"60793-856","<img src= \"https://photos.zillowstatic.com/fp/6c1819f08181d88ba59d1e69ce1ea93e-p_e.jpg\" border=\"0\"></img>","Bradtke and Sons","false","2400 Clubside Ct","apt. 70728","Palm Harbor","FL","34683","United States","28.106182","-82.741941","-82.74194","Z:i.vatsenko@gmail.com","1608720408000","1611314111000","0","28.10618","1581254000005241999","Z:i.vatsenko@gmail.com"
"53489-149","<img src= \"https://photos.zillowstatic.com/fp/76782256f818cfdcde8f6be32b51f9f4-p_e.jpg\" border=\"0\"></img>","Schmitt Group","false","370 Northside Dr NW ","Apt. 1214","Atlanta","GA","30318","United States","33.765252","-84.404432","-84.40443","Z:i.vatsenko@gmail.com","1608720408000","1612357464000","0","33.76525","1581254000005242015","Z:i.vatsenko@gmail.com"
"44946-1017","<img src= \"https://photos.zillowstatic.com/fp/3e1f4cb66dcc6b32be17ae1dd1278b98-p_e.jpg\" border=\"0\"></img>","Swaniawski-Runte","false","1200 N 5th St","apt. 3","Philadelphia","PA","19122","United States","39.970381","-75.145238","-75.14524","Z:i.vatsenko@gmail.com","1608720408000","1611314111000","0","39.97038","1581254000005242019","Z:i.vatsenko@gmail.com"
"57520-0607","<img src= \"https://photos.zillowstatic.com/fp/392d8ae7849ecdc879d0f7af777e8b3c-p_e.jpg\" border=\"0\"></img>","Gottlieb and Sons","false","124 Fairwind Dr","apt. 5108","Chesapeake","VA","23320","United States","36.735433","-76.244436","-76.24444","Z:i.vatsenko@gmail.com","1608720408000","1611314111000","0","36.73543","1581254000005242023","Z:i.vatsenko@gmail.com"
"17630-2036","<img src= \"https://photos.zillowstatic.com/fp/f0a36d86e68c5e09fb343b75f1a084fa-p_e.jpg\" border=\"0\"></img>","Morissette LLC","false","8101 Research Forest Dr","apt. 7208","The Woodlands","TX","77382","United States","30.209296","-95.529903","-95.5299","Z:i.vatsenko@gmail.com","1608720408000","1611314111000","0","30.2093","1581254000005242027","Z:i.vatsenko@gmail.com"
"36800-645","<img src= \"https://photos.zillowstatic.com/fp/17eeda5ca074fe9b879d6d811c85a9fa-p_e.jpg\" border=\"0\"></img>","King LLC","false","3625 Duval Rd","apt. 15-1523","Austin","TX","78759","United States","30.410905","-97.723147","-97.72315","Z:i.vatsenko@gmail.com","1608720408000","1611314111000","0","30.41091","1581254000005242031","Z:i.vatsenko@gmail.com"
"51141-0066","<img src= \"https://photos.zillowstatic.com/fp/a1b796cd50371d48d1471e827dd1cf41-p_e.jpg\" border=\"0\"></img>","Greenholt, Pagac and Mayert","false","2745 Shore Dr","","Virginia Beach","VA","23451","United States","36.912986","-76.064457","-76.06446","Z:i.vatsenko@gmail.com","1608720408000","1612358470000","0","36.91299","1581254000005242035","Z:i.vatsenko@gmail.com"
"0049-3410","<img src= \"https://photos.zillowstatic.com/fp/8f3aec26e43a7e306b9e94ae974a143e-p_e.jpg\" border=\"0\"></img>","Kling, Gaylord and Christiansen","false","8149 Meadow Ln","apt. B","Munster","IN","46321","United States","41.564842","-87.520779","-87.52078","Z:i.vatsenko@gmail.com","1608720408000","1611314111000","0","41.56484","1581254000005242039","Z:i.vatsenko@gmail.com"
"55910-246","<img src= \"https://photos.zillowstatic.com/fp/c9adaa67e09aa29a2d08e0a5cd3d6f5f-p_e.jpg\" border=\"0\"></img>","Walker-Nikolaus","false","125 La Villa Poin","apt. B","Pt Lavaca","TX","77979","United States","28.603515","-96.61769","-96.61769","Z:i.vatsenko@gmail.com","1608720408000","1611314111000","0","28.60352","1581254000005242043","Z:i.vatsenko@gmail.com"
"76237-237","<img src= \"https://photos.zillowstatic.com/fp/83bb64fcceae5c573fc5eea4c4c400c3-p_e.jpg\" border=\"0\"></img>","Heaney, Wilderman and Johns","false","2037 Woodlawn Dr","","Orlando","FL","32803","United States","28.570182","-81.350102","-81.3501","Z:i.vatsenko@gmail.com","1608720408000","1612358470000","0","28.57018","1581254000005242047","Z:i.vatsenko@gmail.com"
"11822-0521","<img src= \"https://photos.zillowstatic.com/fp/de870fb597f781083ce05826319d91e9-p_e.jpg\" border=\"0\"></img>","Schuppe, Bartoletti and Runte","false","15426 Grass Cay Ct","apt. F","Corpus Christi","TX","78418","United States","27.597877","-97.232574","-97.23257","Z:i.vatsenko@gmail.com","1608720408000","1611314111000","0","27.59788","1581254000005242051","Z:i.vatsenko@gmail.com"
"51125-005","<img src= \"https://photos.zillowstatic.com/fp/b009ec2419a6e2db0f4713ec78fdb5eb-p_e.jpg\" border=\"0\"></img>","Corkery-Bergnaum","false","231 N Shippen St","apt. 131","Lancaster","PA","17602","United States","40.04274","-76.299885","-76.29989","Z:i.vatsenko@gmail.com","1608720408000","1611314111000","0","40.04274","1581254000005242055","Z:i.vatsenko@gmail.com"
"50236-001","<img src= \"https://photos.zillowstatic.com/fp/1dd0d9b18f7c7ac7ea6c95fe81b48000-p_e.jpg\" border=\"0\"></img>","Haag Group","false","7156 Parkside Ln ","Apt. 144","Racine","WI","53406","United States","42.743853","-87.869435","-87.86944","Z:i.vatsenko@gmail.com","1608720408000","1612358325000","0","42.74385","1581254000005242059","Z:i.vatsenko@gmail.com"
"0472-0179","<img src= \"https://photos.zillowstatic.com/fp/c47531b4e0d8f99b9023340b17b3765c-p_e.jpg\" border=\"0\"></img>","Stroman, Kub and Runolfsdottir","false","11585 Alamo Ranch Pkwy","apt. 22101","San Antonio","TX","78253","United States","29.488868","-98.722098","-98.7221","Z:i.vatsenko@gmail.com","1608720408000","1611314111000","0","29.48887","1581254000005242063","Z:i.vatsenko@gmail.com"
"0143-9959","<img src= \"https://photos.zillowstatic.com/fp/12a81aef016a0f704af1e4dabc44fdd6-p_e.jpg\" border=\"0\"></img>","Heller LLC","false","3201 Washington Ave","apt. 3150220","Newport News","VA","23607","United States","36.982267","-76.433337","-76.43334","Z:i.vatsenko@gmail.com","1608720408000","1611314111000","0","36.98227","1581254000005242067","Z:i.vatsenko@gmail.com"
"37000-756","<img src= \"https://photos.zillowstatic.com/fp/0b41819864b3e93ab9d5b6b022dafd10-p_e.jpg\" border=\"0\"></img>","Abernathy LLC","false","1620 Bartram Rd","apt. 3102","Jacksonville","FL","32207","United States","30.311701","-81.603923","-81.60392","Z:i.vatsenko@gmail.com","1608720408000","1611314111000","0","30.3117","1581254000005242071","Z:i.vatsenko@gmail.com"
"36987-1111","<img src= \"https://photos.zillowstatic.com/fp/aace39b303082ce939956840ba087ce1-p_e.jpg\" border=\"0\"></img>","Schowalter-Mann","false","401 Chartley Park Rd","apt. 126TB","Reisterstown","MD","21136","United States","39.459686","-76.824583","-76.82458","Z:i.vatsenko@gmail.com","1608720408000","1611314111000","0","39.45969","1581254000005242075","Z:i.vatsenko@gmail.com"
"51991-738","<img src= \"https://photos.zillowstatic.com/fp/e1d3c5983144c37cdbf995d10cce4433-p_e.jpg\" border=\"0\"></img>","Hackett-Greenfelder","false","11401 Old Nuckols Rd","apt. 1322","Glen Allen","VA","23059","United States","37.684605","-77.592701","-77.5927","Z:i.vatsenko@gmail.com","1608720408000","1611314111000","0","37.68461","1581254000005242079","Z:i.vatsenko@gmail.com"
"63481-438","<img src= \"https://photos.zillowstatic.com/fp/12b28f0ef4af74846d3d3b909ca66281-p_e.jpg\" border=\"0\"></img>","Swift, Roob and Kuphal","false","1964 Headwaters Dr","apt. 1978-G","Traverse City","MI","49686","United States","44.718172","-85.537523","-85.53752","Z:i.vatsenko@gmail.com","1608720408000","1611314111000","0","44.71817","1581254000005242083","Z:i.vatsenko@gmail.com"
"66336-537","<img src= \"https://photos.zillowstatic.com/fp/e9aea0afc49981c30adcabf06a921d20-p_e.jpg\" border=\"0\"></img>","Daniel-Mertz","false","786 Parker Forest Dr","apt. 7102","Dawsonville","GA","30534","United States","34.353504","-84.03575","-84.03575","Z:i.vatsenko@gmail.com","1608720408000","1611314111000","0","34.3535","1581254000005242087","Z:i.vatsenko@gmail.com"
"42961-009","<img src= \"https://photos.zillowstatic.com/fp/b844d521361662ae1a9d8e4ef01e9b72-p_e.jpg\" border=\"0\"></img>","Howell, Abernathy and Davis","false","225 White Pine Cir","apt. 15FOC203","Stafford","VA","22554","United States","38.450126","-77.394608","-77.39461","Z:i.vatsenko@gmail.com","1608720408000","1611314111000","0","38.45013","1581254000005242091","Z:i.vatsenko@gmail.com"
"59779-742","<img src= \"https://photos.zillowstatic.com/fp/ce3dd8e18ccfcdae08d31ff817b4522c-p_e.jpg\" border=\"0\"></img>","Bernier-Satterfield","false","530 Fairwood Ave","apt. 295","Clearwater","FL","33759","United States","27.969778","-82.725081","-82.72508","Z:i.vatsenko@gmail.com","1608720408000","1611314111000","0","27.96978","1581254000005242095","Z:i.vatsenko@gmail.com"
"61010-7111","<img src= \"https://photos.zillowstatic.com/fp/6e6257e9b1bb566ff2b22ceef6dfd3d4-p_e.jpg\" border=\"0\"></img>","King and Sons","false","2531 Sarrington Cir","apt. YAR0078","Windsor Mill","MD","21244","United States","39.330084","-76.763973","-76.76397","Z:i.vatsenko@gmail.com","1608720408000","1611314111000","0","39.33008","1581254000005242099","Z:i.vatsenko@gmail.com"
"57955-0172","<img src= \"https://photos.zillowstatic.com/fp/3ee32580ccff03af641b4bf62adb38ff-p_e.jpg\" border=\"0\"></img>","Kozey, Parker and Gaylord","false","8335 Narcoossee Rd","apt. 7110","Orlando","FL","32827","United States","28.446728","-81.261579","-81.26158","Z:i.vatsenko@gmail.com","1608720408000","1611314111000","0","28.44673","1581254000005242103","Z:i.vatsenko@gmail.com"
"68016-201","<img src= \"https://photos.zillowstatic.com/fp/a240725486e2195d26bf53099511e4f3-p_e.jpg\" border=\"0\"></img>","Sawayn and Sons","false","8650 SW 133rd Avenue Rd","apt. 214","Miami","FL","33183","United States","25.68751","-80.412133","-80.41213","Z:i.vatsenko@gmail.com","1608720408000","1611314111000","0","25.68751","1581254000005242107","Z:i.vatsenko@gmail.com"
"0338-0705","<img src= \"https://photos.zillowstatic.com/fp/10ec3f1f182d079712c8137f1acfd3d2-p_e.jpg\" border=\"0\"></img>","Frami-Schumm","false","33 Portland Ave ","Apt. 5","Dover","NH","3820","United States","43.197001","-70.870832","-70.87083","Z:i.vatsenko@gmail.com","1608720408000","1612358325000","0","43.197","1581254000005242111","Z:i.vatsenko@gmail.com"
"51801-007","<img src= \"https://photos.zillowstatic.com/fp/ff2853f78b61d4066853e15ef84e2654-p_e.jpg\" border=\"0\"></img>","Abernathy, Waelchi and Erdman","false","9200 Turnberry Ct","","New Pt Richey","FL","34655","United States","28.211394","-82.662621","-82.66262","Z:i.vatsenko@gmail.com","1608720408000","1612358470000","0","28.21139","1581254000005242115","Z:i.vatsenko@gmail.com"
"68405-054","<img src= \"https://photos.zillowstatic.com/fp/c8e6727a6bb43d7b703b81838c9eb690-p_e.jpg\" border=\"0\"></img>","Braun, Mertz and Gaylord","false","990 English Town Ln","apt. 7-206","Winter Springs","FL","32708","United States","28.649895","-81.27538","-81.27538","Z:i.vatsenko@gmail.com","1608720408000","1611314111000","0","28.6499","1581254000005242123","Z:i.vatsenko@gmail.com"
"59762-5019","<img src= \"https://photos.zillowstatic.com/fp/13096825fd1f933d6fbeb916c2a81e7f-p_e.jpg\" border=\"0\"></img>","Mertz, Wolff and Murray","false","1140 Trinity Pine Ln","apt. 4104","Raleigh","NC","27607","United States","35.795394","-78.730739","-78.73074","Z:i.vatsenko@gmail.com","1608720408000","1611314111000","0","35.79539","1581254000005242127","Z:i.vatsenko@gmail.com"
"52533-124","<img src= \"https://photos.zillowstatic.com/fp/b352521165f3a080c7f0db2e04b22b3d-p_e.jpg\" border=\"0\"></img>","Schowalter, Collins and Ratke","false","1901 Onion Creek Pkwy","apt. 2121102","Austin","TX","78748","United States","30.137078","-97.802857","-97.80286","Z:i.vatsenko@gmail.com","1608720408000","1611314111000","0","30.13708","1581254000005242131","Z:i.vatsenko@gmail.com"
"29500-9085","<img src= \"https://photos.zillowstatic.com/fp/90d82ae426bbf7ccddd490c90e09f6ab-p_e.jpg\" border=\"0\"></img>","Braun-Hansen","false","1200 Belfast Dr","apt. 622","Saint Peters","MO","63376","United States","38.752336","-90.560703","-90.5607","Z:i.vatsenko@gmail.com","1608720408000","1611314111000","0","38.75234","1581254000005242135","Z:i.vatsenko@gmail.com"
"50051-0021","<img src= \"https://photos.zillowstatic.com/fp/08b3b875da9d9914b3eb1a0bbc306b29-p_e.jpg\" border=\"0\"></img>","Keeling-Johns","false","14220 Park Row","apt. 122","Houston","TX","77084","United States","29.789488","-95.642363","-95.64236","Z:i.vatsenko@gmail.com","1608720408000","1611314111000","0","29.78949","1581254000005242139","Z:i.vatsenko@gmail.com"
"42291-685","<img src= \"https://photos.zillowstatic.com/fp/c416954836e38bd4fb10bb3fbc2c065f-p_e.jpg\" border=\"0\"></img>","Aufderhar, Gusikowski and Johnson","false","12191 Chaucer Ln","","Woodbridge","VA","22192","United States","38.687989","-77.323342","-77.32334","Z:i.vatsenko@gmail.com","1608720408000","1612358470000","0","38.68799","1581254000005242143","Z:i.vatsenko@gmail.com"
"0143-2120","<img src= \"https://photos.zillowstatic.com/fp/a7e74a86bd71e912b2e3ec86f6edd2e0-p_e.jpg\" border=\"0\"></img>","Gislason-Howell","false","4651 Sansom St","apt. 3","Philadelphia","PA","19139","United States","39.956403","-75.21486","-75.21486","Z:i.vatsenko@gmail.com","1608720408000","1611314111000","0","39.9564","1581254000005242147","Z:i.vatsenko@gmail.com"
"48951-6050","<img src= \"https://photos.zillowstatic.com/fp/a8f42a5db43dd5151df26c48e3f3c941-p_e.jpg\" border=\"0\"></img>","Roob-Welch","false","219 N Cortez St","","New Orleans","LA","70119","United States","29.97398","-90.096653","-90.09665","Z:i.vatsenko@gmail.com","1608720408000","1612358470000","0","29.97398","1581254000005242151","Z:i.vatsenko@gmail.com"
"30142-937","<img src= \"https://photos.zillowstatic.com/fp/e0abf00e19e731d1e4a40ca4f4f6b903-p_e.jpg\" border=\"0\"></img>","Mosciski Group","false","620 Railroad Ave","apt. 104","Denton","TX","76209","United States","33.219209","-97.125508","-97.12551","Z:i.vatsenko@gmail.com","1608720408000","1611314111000","0","33.21921","1581254000005242155","Z:i.vatsenko@gmail.com"
"20482-008","<img src= \"https://photos.zillowstatic.com/fp/d4130c6107b672c7340eb83596eb046e-p_e.jpg\" border=\"0\"></img>","Mueller and Sons","false","21145 Spring Plaza Dr","apt. 2401","Spring","TX","77388","United States","30.079903","-95.444364","-95.44436","Z:i.vatsenko@gmail.com","1608720408000","1611314111000","0","30.0799","1581254000005242159","Z:i.vatsenko@gmail.com"
"31722-328","<img src= \"https://photos.zillowstatic.com/fp/ea6eedad186dab007e7d2b68c9624b1a-p_e.jpg\" border=\"0\"></img>","Balistreri-Koch","false","19411 Via Del Mar","apt. 4208","Tampa","FL","33647","United States","28.149211","-82.352092","-82.35209","Z:i.vatsenko@gmail.com","1608720408000","1611314111000","0","28.14921","1581254000005242163","Z:i.vatsenko@gmail.com"
"75983-495","<img src= \"https://photos.zillowstatic.com/fp/00b1927413caf36fba68745c314e64aa-p_e.jpg\" border=\"0\"></img>","Zemlak, Upton and Cummerata","false","714 Fulton St E","","Grand Rapids","MI","49503","United States","42.962658","-85.651625","-85.65163","Z:i.vatsenko@gmail.com","1608720408000","1612358470000","0","42.96266","1581254000005242167","Z:i.vatsenko@gmail.com"
"63629-2579","<img src= \"https://photos.zillowstatic.com/fp/04e225a999e4fdd02d0c3cc68fa10cd4-p_e.jpg\" border=\"0\"></img>","Wehner LLC","false","1610 Professional Pkwy","apt. 6","Auburn","AL","36830","United States","32.631072","-85.447464","-85.44746","Z:i.vatsenko@gmail.com","1608720408000","1611314111000","0","32.63107","1581254000005242171","Z:i.vatsenko@gmail.com"
"51655-125","<img src= \"https://photos.zillowstatic.com/fp/6ec349dc1079ee8ad30f729f3e6b842c-p_e.jpg\" border=\"0\"></img>","Goyette LLC","false","6800 Gaston Rd","apt. 9302","Katy","TX","77494","United States","29.701138","-95.783555","-95.78356","Z:i.vatsenko@gmail.com","1608720408000","1611314111000","0","29.70114","1581254000005242175","Z:i.vatsenko@gmail.com"
"75909-120","<img src= \"https://photos.zillowstatic.com/fp/fa1f60f14dbebdfb958badfce6af9d78-p_e.jpg\" border=\"0\"></img>","Effertz, Johnston and Herzog","false","3800 Nicholasville Rd","apt. 1118","Lexington","KY","40503","United States","37.982725","-84.52534","-84.52534","Z:i.vatsenko@gmail.com","1608720408000","1611314111000","0","37.98273","1581254000005242179","Z:i.vatsenko@gmail.com"
"51346-196","<img src= \"https://photos.zillowstatic.com/fp/d588a9cd2705617965d310e3373ce110-p_e.jpg\" border=\"0\"></img>","Trantow Group","false","112 Lynbrook Dr","apt. B","Palm Coast","FL","32137","United States","29.606832","-81.258693","-81.25869","Z:i.vatsenko@gmail.com","1608720408000","1611314111000","0","29.60683","1581254000005242183","Z:i.vatsenko@gmail.com"
"0228-1112","<img src= \"https://photos.zillowstatic.com/fp/b5114bfb6c77b4add6384e227208584b-p_e.jpg\" border=\"0\"></img>","Heller and Sons","false","124 Glengarry Dr","apt. 302","Bloomingdale","IL","60108","United States","41.945609","-88.105624","-88.10562","Z:i.vatsenko@gmail.com","1608720408000","1611314111000","0","41.94561","1581254000005242187","Z:i.vatsenko@gmail.com"
"21695-744","<img src= \"https://photos.zillowstatic.com/fp/d25c89b4562c9decf0b477047a614d4c-p_e.jpg\" border=\"0\"></img>","Funk Inc","false","6315 Kingston Pike","apt. 706","Knoxville","TN","37919","United States","35.934003","-84.007793","-84.00779","Z:i.vatsenko@gmail.com","1608720408000","1611314111000","0","35.934","1581254000005242191","Z:i.vatsenko@gmail.com"
"63824-468","<img src= \"https://photos.zillowstatic.com/fp/57650b8fe84ddc09c548679daee9e4a3-p_e.jpg\" border=\"0\"></img>","Christiansen and Sons","false","14500 English Park Cir","apt. 14507-302","Louisville","KY","40299","United States","38.225558","-85.497241","-85.49724","Z:i.vatsenko@gmail.com","1608720408000","1611314111000","0","38.22556","1581254000005242195","Z:i.vatsenko@gmail.com"
"11523-0464","<img src= \"https://photos.zillowstatic.com/fp/b98f8e0d19d5d224e08e45d0fb7c1367-p_e.jpg\" border=\"0\"></img>","Quitzon and Sons","false","9721 Rose Commons Dr","apt. 7307","Huntersville","NC","28078","United States","35.407904","-80.866797","-80.8668","Z:i.vatsenko@gmail.com","1608720408000","1611314111000","0","35.4079","1581254000005242203","Z:i.vatsenko@gmail.com"
"64578-0084","<img src= \"https://photos.zillowstatic.com/fp/0fe6353197a7fcc1b13402f577aa9e8f-p_e.jpg\" border=\"0\"></img>","Rippin Inc","false","1515 Benton Blvd","apt. 2218","Pt Wentworth","GA","31407","United States","32.1499","-81.247219","-81.24722","Z:i.vatsenko@gmail.com","1608720408000","1611314111000","0","32.1499","1581254000005242207","Z:i.vatsenko@gmail.com"
"45802-961","<img src= \"https://photos.zillowstatic.com/fp/7b070f7cff3008965a7baeaeb6a5f3f8-p_e.jpg\" border=\"0\"></img>","Wilderman, Johns and Hartmann","false","5020 Avent Dr NW","apt. 4-301","Concord","NC","28027","United States","35.407694","-80.665578","-80.66558","Z:i.vatsenko@gmail.com","1608720408000","1611314111000","0","35.40769","1581254000005242211","Z:i.vatsenko@gmail.com"
"41167-0610","<img src= \"https://photos.zillowstatic.com/fp/1931b10cd9bdac6066f4729a404189bb-p_e.jpg\" border=\"0\"></img>","Price, Considine and Abernathy","false","335 Double Creek Dr","apt. 296-202","Plainfield","IN","46168","United States","39.730459","-86.329928","-86.32993","Z:i.vatsenko@gmail.com","1608720408000","1611314111000","0","39.73046","1581254000005242215","Z:i.vatsenko@gmail.com"
"47202-1142","<img src= \"https://photos.zillowstatic.com/fp/2151b552e0ea43c47cbecbf18a7e0a8f-p_e.jpg\" border=\"0\"></img>","Gusikowski Inc","false","118 S Line St","","Lansdale","PA","19446","United States","40.237859","-75.280821","-75.28082","Z:i.vatsenko@gmail.com","1608720408000","1612358470000","0","40.23786","1581254000005242219","Z:i.vatsenko@gmail.com"
"0268-0002","<img src= \"https://photos.zillowstatic.com/fp/676ef293675deb430ade1be715974fcf-p_e.jpg\" border=\"0\"></img>","Gottlieb and Sons","false","50 Canterfield Pkwy","apt. 1006","Dundee","IL","60118","United States","42.075139","-88.295658","-88.29566","Z:i.vatsenko@gmail.com","1608720408000","1611314111000","0","42.07514","1581254000005242223","Z:i.vatsenko@gmail.com"
"10210-0005","<img src= \"https://photos.zillowstatic.com/fp/ee1fe398b61edc75cbda37c45e16ec43-p_e.jpg\" border=\"0\"></img>","Conn and Sons","false","44 Marshall St","","Poughkeepsie","NY","12601","United States","41.708948","-73.927105","-73.92711","Z:i.vatsenko@gmail.com","1608720408000","1612358470000","0","41.70895","1581254000005242231","Z:i.vatsenko@gmail.com"
